Time,header.seq,header.stamp.secs,header.stamp.nsecs,header.frame_id,orientation.x,orientation.y,orientation.z,orientation.w,orientation_covariance_0,orientation_covariance_1,orientation_covariance_2,orientation_covariance_3,orientation_covariance_4,orientation_covariance_5,orientation_covariance_6,orientation_covariance_7,orientation_covariance_8,angular_velocity.x,angular_velocity.y,angular_velocity.z,angular_velocity_covariance_0,angular_velocity_covariance_1,angular_velocity_covariance_2,angular_velocity_covariance_3,angular_velocity_covariance_4,angular_velocity_covariance_5,angular_velocity_covariance_6,angular_velocity_covariance_7,angular_velocity_covariance_8,linear_acceleration.x,linear_acceleration.y,linear_acceleration.z,linear_acceleration_covariance_0,linear_acceleration_covariance_1,linear_acceleration_covariance_2,linear_acceleration_covariance_3,linear_acceleration_covariance_4,linear_acceleration_covariance_5,linear_acceleration_covariance_6,linear_acceleration_covariance_7,linear_acceleration_covariance_8
1616008203.976378,1,0,0,,-0.8601125531738107,0.11071412433017833,0.3210354588249436,-0.380637639657048,0.0,0.0,0.0,0.0,0.0,0.0,0.0,0.0,0.0,0.06,0.03,0.09,0.0,0.0,0.0,0.0,0.0,0.0,0.0,0.0,0.0,0.012400000000000001,0.002,1.0012,0.0,0.0,0.0,0.0,0.0,0.0,0.0,0.0,0.0
1616008203.9785697,2,0,0,,-0.8601125531738107,0.11071412433017833,0.3210354588249436,-0.380637639657048,0.0,0.0,0.0,0.0,0.0,0.0,0.0,0.0,0.0,0.06,0.03,0.09,0.0,0.0,0.0,0.0,0.0,0.0,0.0,0.0,0.0,0.012400000000000001,0.002,1.0012,0.0,0.0,0.0,0.0,0.0,0.0,0.0,0.0,0.0
1616008203.985285,3,0,0,,-0.8601125531738107,0.11071412433017833,0.3210354588249436,-0.380637639657048,0.0,0.0,0.0,0.0,0.0,0.0,0.0,0.0,0.0,0.0,0.01,-0.04,0.0,0.0,0.0,0.0,0.0,0.0,0.0,0.0,0.0,0.012400000000000001,0.0012000000000000001,1.0008000000000001,0.0,0.0,0.0,0.0,0.0,0.0,0.0,0.0,0.0
1616008203.9872308,4,0,0,,-0.8620049820576373,0.10910756980061449,0.32158501420517754,-0.3763323368495887,0.0,0.0,0.0,0.0,0.0,0.0,0.0,0.0,0.0,0.0,0.01,-0.04,0.0,0.0,0.0,0.0,0.0,0.0,0.0,0.0,0.0,0.012400000000000001,0.0012000000000000001,1.0008000000000001,0.0,0.0,0.0,0.0,0.0,0.0,0.0,0.0,0.0
1616008203.994375,5,0,0,,-0.8620049820576373,0.10910756980061449,0.32158501420517754,-0.3763323368495887,0.0,0.0,0.0,0.0,0.0,0.0,0.0,0.0,0.0,-0.04,0.06,0.05,0.0,0.0,0.0,0.0,0.0,0.0,0.0,0.0,0.0,0.012400000000000001,0.0016,1.0004,0.0,0.0,0.0,0.0,0.0,0.0,0.0,0.0,0.0
1616008203.9972692,6,0,0,,-0.8620049820576373,0.10910756980061449,0.32158501420517754,-0.3763323368495887,0.0,0.0,0.0,0.0,0.0,0.0,0.0,0.0,0.0,-0.04,0.06,0.05,0.0,0.0,0.0,0.0,0.0,0.0,0.0,0.0,0.0,0.012400000000000001,0.0016,1.0004,0.0,0.0,0.0,0.0,0.0,0.0,0.0,0.0,0.0
1616008204.0044835,7,0,0,,-0.8620049820576373,0.10910756980061449,0.32158501420517754,-0.3763323368495887,0.0,0.0,0.0,0.0,0.0,0.0,0.0,0.0,0.0,-0.08,-0.02,0.02,0.0,0.0,0.0,0.0,0.0,0.0,0.0,0.0,0.0,0.012400000000000001,0.0016,1.0012,0.0,0.0,0.0,0.0,0.0,0.0,0.0,0.0,0.0
1616008204.0062895,8,0,0,,-0.8620049820576373,0.10910756980061449,0.32158501420517754,-0.3763323368495887,0.0,0.0,0.0,0.0,0.0,0.0,0.0,0.0,0.0,-0.08,-0.02,0.02,0.0,0.0,0.0,0.0,0.0,0.0,0.0,0.0,0.0,0.012400000000000001,0.0016,1.0012,0.0,0.0,0.0,0.0,0.0,0.0,0.0,0.0,0.0
1616008204.0138683,9,0,0,,-0.8620049820576373,0.10910756980061449,0.32158501420517754,-0.3763323368495887,0.0,0.0,0.0,0.0,0.0,0.0,0.0,0.0,0.0,0.03,-0.05,0.13,0.0,0.0,0.0,0.0,0.0,0.0,0.0,0.0,0.0,0.012,0.002,1.0012,0.0,0.0,0.0,0.0,0.0,0.0,0.0,0.0,0.0
1616008204.0163102,10,0,0,,-0.8620049820576373,0.10910756980061449,0.32158501420517754,-0.3763323368495887,0.0,0.0,0.0,0.0,0.0,0.0,0.0,0.0,0.0,0.03,-0.05,0.13,0.0,0.0,0.0,0.0,0.0,0.0,0.0,0.0,0.0,0.012,0.002,1.0012,0.0,0.0,0.0,0.0,0.0,0.0,0.0,0.0,0.0
1616008204.0242715,11,0,0,,-0.8620049820576373,0.10910756980061449,0.32158501420517754,-0.3763323368495887,0.0,0.0,0.0,0.0,0.0,0.0,0.0,0.0,0.0,0.08,0.09,0.07,0.0,0.0,0.0,0.0,0.0,0.0,0.0,0.0,0.0,0.012,0.0012000000000000001,0.9996,0.0,0.0,0.0,0.0,0.0,0.0,0.0,0.0,0.0
1616008204.026109,12,0,0,,-0.8620049820576373,0.10910756980061449,0.32158501420517754,-0.3763323368495887,0.0,0.0,0.0,0.0,0.0,0.0,0.0,0.0,0.0,0.08,0.09,0.07,0.0,0.0,0.0,0.0,0.0,0.0,0.0,0.0,0.0,0.012,0.0012000000000000001,0.9996,0.0,0.0,0.0,0.0,0.0,0.0,0.0,0.0,0.0
1616008204.0375032,13,0,0,,-0.8620049820576373,0.10910756980061449,0.32158501420517754,-0.3763323368495887,0.0,0.0,0.0,0.0,0.0,0.0,0.0,0.0,0.0,0.02,-0.03,0.07,0.0,0.0,0.0,0.0,0.0,0.0,0.0,0.0,0.0,0.012,0.0012000000000000001,1.0004,0.0,0.0,0.0,0.0,0.0,0.0,0.0,0.0,0.0
1616008204.0381546,14,0,0,,-0.8620049820576373,0.10910756980061449,0.32158501420517754,-0.3763323368495887,0.0,0.0,0.0,0.0,0.0,0.0,0.0,0.0,0.0,0.02,-0.03,0.07,0.0,0.0,0.0,0.0,0.0,0.0,0.0,0.0,0.0,0.012,0.0012000000000000001,1.0004,0.0,0.0,0.0,0.0,0.0,0.0,0.0,0.0,0.0
1616008204.0441759,15,0,0,,-0.8620049820576373,0.10910756980061449,0.32158501420517754,-0.3763323368495887,0.0,0.0,0.0,0.0,0.0,0.0,0.0,0.0,0.0,-0.02,0.05,0.1,0.0,0.0,0.0,0.0,0.0,0.0,0.0,0.0,0.0,0.0128,0.002,1.0,0.0,0.0,0.0,0.0,0.0,0.0,0.0,0.0,0.0
1616008204.0469663,16,0,0,,-0.8620049820576373,0.10910756980061449,0.32158501420517754,-0.3763323368495887,0.0,0.0,0.0,0.0,0.0,0.0,0.0,0.0,0.0,-0.02,0.05,0.1,0.0,0.0,0.0,0.0,0.0,0.0,0.0,0.0,0.0,0.0128,0.002,1.0,0.0,0.0,0.0,0.0,0.0,0.0,0.0,0.0,0.0
1616008204.054596,17,0,0,,-0.8620049820576373,0.10910756980061449,0.32158501420517754,-0.3763323368495887,0.0,0.0,0.0,0.0,0.0,0.0,0.0,0.0,0.0,0.0,0.03,0.18,0.0,0.0,0.0,0.0,0.0,0.0,0.0,0.0,0.0,0.0132,0.0016,1.0004,0.0,0.0,0.0,0.0,0.0,0.0,0.0,0.0,0.0
1616008204.0566514,18,0,0,,-0.8601125531738107,0.11071412433017833,0.3210354588249436,-0.380637639657048,0.0,0.0,0.0,0.0,0.0,0.0,0.0,0.0,0.0,0.0,0.03,0.18,0.0,0.0,0.0,0.0,0.0,0.0,0.0,0.0,0.0,0.0132,0.0016,1.0004,0.0,0.0,0.0,0.0,0.0,0.0,0.0,0.0,0.0
1616008204.063531,19,0,0,,-0.8601125531738107,0.11071412433017833,0.3210354588249436,-0.380637639657048,0.0,0.0,0.0,0.0,0.0,0.0,0.0,0.0,0.0,0.07,-0.02,0.12,0.0,0.0,0.0,0.0,0.0,0.0,0.0,0.0,0.0,0.0128,0.002,1.0016,0.0,0.0,0.0,0.0,0.0,0.0,0.0,0.0,0.0
1616008204.066289,20,0,0,,-0.8601125531738107,0.11071412433017833,0.3210354588249436,-0.380637639657048,0.0,0.0,0.0,0.0,0.0,0.0,0.0,0.0,0.0,0.07,-0.02,0.12,0.0,0.0,0.0,0.0,0.0,0.0,0.0,0.0,0.0,0.0128,0.002,1.0016,0.0,0.0,0.0,0.0,0.0,0.0,0.0,0.0,0.0
1616008204.0745134,21,0,0,,-0.8601125531738107,0.11071412433017833,0.3210354588249436,-0.380637639657048,0.0,0.0,0.0,0.0,0.0,0.0,0.0,0.0,0.0,-0.03,-0.05,0.05,0.0,0.0,0.0,0.0,0.0,0.0,0.0,0.0,0.0,0.012,0.0016,1.0008000000000001,0.0,0.0,0.0,0.0,0.0,0.0,0.0,0.0,0.0
1616008204.075844,22,0,0,,-0.8601125531738107,0.11071412433017833,0.3210354588249436,-0.380637639657048,0.0,0.0,0.0,0.0,0.0,0.0,0.0,0.0,0.0,-0.03,-0.05,0.05,0.0,0.0,0.0,0.0,0.0,0.0,0.0,0.0,0.0,0.012,0.0016,1.0008000000000001,0.0,0.0,0.0,0.0,0.0,0.0,0.0,0.0,0.0
1616008204.0834835,23,0,0,,-0.8601125531738107,0.11071412433017833,0.3210354588249436,-0.380637639657048,0.0,0.0,0.0,0.0,0.0,0.0,0.0,0.0,0.0,-0.11,-0.11,0.07,0.0,0.0,0.0,0.0,0.0,0.0,0.0,0.0,0.0,0.0128,0.0012000000000000001,1.0008000000000001,0.0,0.0,0.0,0.0,0.0,0.0,0.0,0.0,0.0
1616008204.0865924,24,0,0,,-0.8601125531738107,0.11071412433017833,0.3210354588249436,-0.380637639657048,0.0,0.0,0.0,0.0,0.0,0.0,0.0,0.0,0.0,-0.11,-0.11,0.07,0.0,0.0,0.0,0.0,0.0,0.0,0.0,0.0,0.0,0.0128,0.0012000000000000001,1.0008000000000001,0.0,0.0,0.0,0.0,0.0,0.0,0.0,0.0,0.0
1616008204.0952206,25,0,0,,-0.8601125531738107,0.11071412433017833,0.3210354588249436,-0.380637639657048,0.0,0.0,0.0,0.0,0.0,0.0,0.0,0.0,0.0,-0.11,-0.01,0.07,0.0,0.0,0.0,0.0,0.0,0.0,0.0,0.0,0.0,0.012400000000000001,0.0012000000000000001,1.0016,0.0,0.0,0.0,0.0,0.0,0.0,0.0,0.0,0.0
1616008204.0961387,26,0,0,,-0.8601125531738107,0.11071412433017833,0.3210354588249436,-0.380637639657048,0.0,0.0,0.0,0.0,0.0,0.0,0.0,0.0,0.0,-0.11,-0.01,0.07,0.0,0.0,0.0,0.0,0.0,0.0,0.0,0.0,0.0,0.012400000000000001,0.0012000000000000001,1.0016,0.0,0.0,0.0,0.0,0.0,0.0,0.0,0.0,0.0
1616008204.104557,27,0,0,,-0.8601125531738107,0.11071412433017833,0.3210354588249436,-0.380637639657048,0.0,0.0,0.0,0.0,0.0,0.0,0.0,0.0,0.0,-0.02,-0.01,0.15,0.0,0.0,0.0,0.0,0.0,0.0,0.0,0.0,0.0,0.012400000000000001,0.0012000000000000001,1.0008000000000001,0.0,0.0,0.0,0.0,0.0,0.0,0.0,0.0,0.0
1616008204.1072788,28,0,0,,-0.8601125531738107,0.11071412433017833,0.3210354588249436,-0.380637639657048,0.0,0.0,0.0,0.0,0.0,0.0,0.0,0.0,0.0,-0.02,-0.01,0.15,0.0,0.0,0.0,0.0,0.0,0.0,0.0,0.0,0.0,0.012400000000000001,0.0012000000000000001,1.0008000000000001,0.0,0.0,0.0,0.0,0.0,0.0,0.0,0.0,0.0
1616008204.1181355,29,0,0,,-0.8601125531738107,0.11071412433017833,0.3210354588249436,-0.380637639657048,0.0,0.0,0.0,0.0,0.0,0.0,0.0,0.0,0.0,0.02,-0.02,0.05,0.0,0.0,0.0,0.0,0.0,0.0,0.0,0.0,0.0,0.012,0.0008,1.0008000000000001,0.0,0.0,0.0,0.0,0.0,0.0,0.0,0.0,0.0
1616008204.1182032,30,0,0,,-0.8601125531738107,0.11071412433017833,0.3210354588249436,-0.380637639657048,0.0,0.0,0.0,0.0,0.0,0.0,0.0,0.0,0.0,0.02,-0.02,0.05,0.0,0.0,0.0,0.0,0.0,0.0,0.0,0.0,0.0,0.012,0.0008,1.0008000000000001,0.0,0.0,0.0,0.0,0.0,0.0,0.0,0.0,0.0
1616008204.123848,31,0,0,,-0.8601125531738107,0.11071412433017833,0.3210354588249436,-0.380637639657048,0.0,0.0,0.0,0.0,0.0,0.0,0.0,0.0,0.0,0.01,0.05,0.13,0.0,0.0,0.0,0.0,0.0,0.0,0.0,0.0,0.0,0.012400000000000001,0.0016,1.0004,0.0,0.0,0.0,0.0,0.0,0.0,0.0,0.0,0.0
1616008204.126074,32,0,0,,-0.8601125531738107,0.11071412433017833,0.3210354588249436,-0.380637639657048,0.0,0.0,0.0,0.0,0.0,0.0,0.0,0.0,0.0,0.01,0.05,0.13,0.0,0.0,0.0,0.0,0.0,0.0,0.0,0.0,0.0,0.012400000000000001,0.0016,1.0004,0.0,0.0,0.0,0.0,0.0,0.0,0.0,0.0,0.0
1616008204.1439676,33,0,0,,-0.8601125531738107,0.11071412433017833,0.3210354588249436,-0.380637639657048,0.0,0.0,0.0,0.0,0.0,0.0,0.0,0.0,0.0,-0.08,-0.03,0.15,0.0,0.0,0.0,0.0,0.0,0.0,0.0,0.0,0.0,0.012,0.0016,1.0,0.0,0.0,0.0,0.0,0.0,0.0,0.0,0.0,0.0
1616008204.1461864,34,0,0,,-0.8601125531738107,0.11071412433017833,0.3210354588249436,-0.380637639657048,0.0,0.0,0.0,0.0,0.0,0.0,0.0,0.0,0.0,-0.08,-0.03,0.15,0.0,0.0,0.0,0.0,0.0,0.0,0.0,0.0,0.0,0.012,0.0016,1.0,0.0,0.0,0.0,0.0,0.0,0.0,0.0,0.0,0.0
1616008204.1536543,35,0,0,,-0.8601125531738107,0.11071412433017833,0.3210354588249436,-0.380637639657048,0.0,0.0,0.0,0.0,0.0,0.0,0.0,0.0,0.0,0.01,-0.05,0.13,0.0,0.0,0.0,0.0,0.0,0.0,0.0,0.0,0.0,0.0128,0.0016,1.0004,0.0,0.0,0.0,0.0,0.0,0.0,0.0,0.0,0.0
1616008204.1563623,36,0,0,,-0.8601125531738107,0.11071412433017833,0.3210354588249436,-0.380637639657048,0.0,0.0,0.0,0.0,0.0,0.0,0.0,0.0,0.0,0.01,-0.05,0.13,0.0,0.0,0.0,0.0,0.0,0.0,0.0,0.0,0.0,0.0128,0.0016,1.0004,0.0,0.0,0.0,0.0,0.0,0.0,0.0,0.0,0.0
1616008204.1641548,37,0,0,,-0.8601125531738107,0.11071412433017833,0.3210354588249436,-0.380637639657048,0.0,0.0,0.0,0.0,0.0,0.0,0.0,0.0,0.0,-0.12,0.08,0.07,0.0,0.0,0.0,0.0,0.0,0.0,0.0,0.0,0.0,0.0128,0.0012000000000000001,1.0008000000000001,0.0,0.0,0.0,0.0,0.0,0.0,0.0,0.0,0.0
1616008204.166629,38,0,0,,-0.8601125531738107,0.11071412433017833,0.3210354588249436,-0.380637639657048,0.0,0.0,0.0,0.0,0.0,0.0,0.0,0.0,0.0,-0.12,0.08,0.07,0.0,0.0,0.0,0.0,0.0,0.0,0.0,0.0,0.0,0.0128,0.0012000000000000001,1.0008000000000001,0.0,0.0,0.0,0.0,0.0,0.0,0.0,0.0,0.0
1616008204.173459,39,0,0,,-0.8601125531738107,0.11071412433017833,0.3210354588249436,-0.380637639657048,0.0,0.0,0.0,0.0,0.0,0.0,0.0,0.0,0.0,-0.02,0.1,0.15,0.0,0.0,0.0,0.0,0.0,0.0,0.0,0.0,0.0,0.0132,0.0016,1.0004,0.0,0.0,0.0,0.0,0.0,0.0,0.0,0.0,0.0
1616008204.176983,40,0,0,,-0.8601125531738107,0.11071412433017833,0.3210354588249436,-0.380637639657048,0.0,0.0,0.0,0.0,0.0,0.0,0.0,0.0,0.0,-0.02,0.1,0.15,0.0,0.0,0.0,0.0,0.0,0.0,0.0,0.0,0.0,0.0132,0.0016,1.0004,0.0,0.0,0.0,0.0,0.0,0.0,0.0,0.0,0.0
1616008204.1838598,41,0,0,,-0.8601125531738107,0.11071412433017833,0.3210354588249436,-0.380637639657048,0.0,0.0,0.0,0.0,0.0,0.0,0.0,0.0,0.0,-0.01,-0.03,0.0,0.0,0.0,0.0,0.0,0.0,0.0,0.0,0.0,0.0,0.012400000000000001,0.0016,1.0008000000000001,0.0,0.0,0.0,0.0,0.0,0.0,0.0,0.0,0.0
1616008204.1860569,42,0,0,,-0.8601125531738107,0.11071412433017833,0.3210354588249436,-0.380637639657048,0.0,0.0,0.0,0.0,0.0,0.0,0.0,0.0,0.0,-0.01,-0.03,0.0,0.0,0.0,0.0,0.0,0.0,0.0,0.0,0.0,0.0,0.012400000000000001,0.0016,1.0008000000000001,0.0,0.0,0.0,0.0,0.0,0.0,0.0,0.0,0.0
1616008204.1937897,43,0,0,,-0.8601125531738107,0.11071412433017833,0.3210354588249436,-0.380637639657048,0.0,0.0,0.0,0.0,0.0,0.0,0.0,0.0,0.0,0.07,0.02,0.07,0.0,0.0,0.0,0.0,0.0,0.0,0.0,0.0,0.0,0.0128,0.0012000000000000001,1.0008000000000001,0.0,0.0,0.0,0.0,0.0,0.0,0.0,0.0,0.0
1616008204.1961296,44,0,0,,-0.8601125531738107,0.11071412433017833,0.3210354588249436,-0.380637639657048,0.0,0.0,0.0,0.0,0.0,0.0,0.0,0.0,0.0,0.07,0.02,0.07,0.0,0.0,0.0,0.0,0.0,0.0,0.0,0.0,0.0,0.0128,0.0012000000000000001,1.0008000000000001,0.0,0.0,0.0,0.0,0.0,0.0,0.0,0.0,0.0
1616008204.203809,45,0,0,,-0.8601125531738107,0.11071412433017833,0.3210354588249436,-0.380637639657048,0.0,0.0,0.0,0.0,0.0,0.0,0.0,0.0,0.0,-0.05,-0.06,0.07,0.0,0.0,0.0,0.0,0.0,0.0,0.0,0.0,0.0,0.0128,0.0012000000000000001,1.0008000000000001,0.0,0.0,0.0,0.0,0.0,0.0,0.0,0.0,0.0
1616008204.2074482,46,0,0,,-0.8601125531738107,0.11071412433017833,0.3210354588249436,-0.380637639657048,0.0,0.0,0.0,0.0,0.0,0.0,0.0,0.0,0.0,-0.05,-0.06,0.07,0.0,0.0,0.0,0.0,0.0,0.0,0.0,0.0,0.0,0.0128,0.0012000000000000001,1.0008000000000001,0.0,0.0,0.0,0.0,0.0,0.0,0.0,0.0,0.0
1616008204.21562,47,0,0,,-0.8601125531738107,0.11071412433017833,0.3210354588249436,-0.380637639657048,0.0,0.0,0.0,0.0,0.0,0.0,0.0,0.0,0.0,-0.06,0.02,0.07,0.0,0.0,0.0,0.0,0.0,0.0,0.0,0.0,0.0,0.0128,0.0016,1.0,0.0,0.0,0.0,0.0,0.0,0.0,0.0,0.0,0.0
1616008204.2166202,48,0,0,,-0.8601125531738107,0.11071412433017833,0.3210354588249436,-0.380637639657048,0.0,0.0,0.0,0.0,0.0,0.0,0.0,0.0,0.0,-0.06,0.02,0.07,0.0,0.0,0.0,0.0,0.0,0.0,0.0,0.0,0.0,0.0128,0.0016,1.0,0.0,0.0,0.0,0.0,0.0,0.0,0.0,0.0,0.0
1616008204.2238262,49,0,0,,-0.8601125531738107,0.11071412433017833,0.3210354588249436,-0.380637639657048,0.0,0.0,0.0,0.0,0.0,0.0,0.0,0.0,0.0,-0.05,0.04,0.01,0.0,0.0,0.0,0.0,0.0,0.0,0.0,0.0,0.0,0.011600000000000001,0.002,1.0008000000000001,0.0,0.0,0.0,0.0,0.0,0.0,0.0,0.0,0.0
1616008204.2258468,50,0,0,,-0.8601125531738107,0.11071412433017833,0.3210354588249436,-0.380637639657048,0.0,0.0,0.0,0.0,0.0,0.0,0.0,0.0,0.0,-0.05,0.04,0.01,0.0,0.0,0.0,0.0,0.0,0.0,0.0,0.0,0.0,0.011600000000000001,0.002,1.0008000000000001,0.0,0.0,0.0,0.0,0.0,0.0,0.0,0.0,0.0
1616008204.2340093,51,0,0,,-0.8601125531738107,0.11071412433017833,0.3210354588249436,-0.380637639657048,0.0,0.0,0.0,0.0,0.0,0.0,0.0,0.0,0.0,0.04,0.01,0.01,0.0,0.0,0.0,0.0,0.0,0.0,0.0,0.0,0.0,0.0128,0.0012000000000000001,0.9996,0.0,0.0,0.0,0.0,0.0,0.0,0.0,0.0,0.0
1616008204.236046,52,0,0,,-0.8601125531738107,0.11071412433017833,0.3210354588249436,-0.380637639657048,0.0,0.0,0.0,0.0,0.0,0.0,0.0,0.0,0.0,0.04,0.01,0.01,0.0,0.0,0.0,0.0,0.0,0.0,0.0,0.0,0.0,0.0128,0.0012000000000000001,0.9996,0.0,0.0,0.0,0.0,0.0,0.0,0.0,0.0,0.0
1616008204.244112,53,0,0,,-0.8601125531738107,0.11071412433017833,0.3210354588249436,-0.380637639657048,0.0,0.0,0.0,0.0,0.0,0.0,0.0,0.0,0.0,-0.02,0.13,0.09,0.0,0.0,0.0,0.0,0.0,0.0,0.0,0.0,0.0,0.012400000000000001,0.0016,1.0,0.0,0.0,0.0,0.0,0.0,0.0,0.0,0.0,0.0
1616008204.247168,54,0,0,,-0.8601125531738107,0.11071412433017833,0.3210354588249436,-0.380637639657048,0.0,0.0,0.0,0.0,0.0,0.0,0.0,0.0,0.0,-0.02,0.13,0.09,0.0,0.0,0.0,0.0,0.0,0.0,0.0,0.0,0.0,0.012400000000000001,0.0016,1.0,0.0,0.0,0.0,0.0,0.0,0.0,0.0,0.0,0.0
1616008204.2541704,55,0,0,,-0.8601125531738107,0.11071412433017833,0.3210354588249436,-0.380637639657048,0.0,0.0,0.0,0.0,0.0,0.0,0.0,0.0,0.0,-0.09,0.01,0.13,0.0,0.0,0.0,0.0,0.0,0.0,0.0,0.0,0.0,0.0128,0.002,1.0008000000000001,0.0,0.0,0.0,0.0,0.0,0.0,0.0,0.0,0.0
1616008204.2559419,56,0,0,,-0.8601125531738107,0.11071412433017833,0.3210354588249436,-0.380637639657048,0.0,0.0,0.0,0.0,0.0,0.0,0.0,0.0,0.0,-0.09,0.01,0.13,0.0,0.0,0.0,0.0,0.0,0.0,0.0,0.0,0.0,0.0128,0.002,1.0008000000000001,0.0,0.0,0.0,0.0,0.0,0.0,0.0,0.0,0.0
1616008204.2647069,57,0,0,,-0.8601125531738107,0.11071412433017833,0.3210354588249436,-0.380637639657048,0.0,0.0,0.0,0.0,0.0,0.0,0.0,0.0,0.0,-0.01,-0.01,0.04,0.0,0.0,0.0,0.0,0.0,0.0,0.0,0.0,0.0,0.0128,0.002,1.0008000000000001,0.0,0.0,0.0,0.0,0.0,0.0,0.0,0.0,0.0
1616008204.2672384,58,0,0,,-0.8601125531738107,0.11071412433017833,0.3210354588249436,-0.380637639657048,0.0,0.0,0.0,0.0,0.0,0.0,0.0,0.0,0.0,-0.01,-0.01,0.04,0.0,0.0,0.0,0.0,0.0,0.0,0.0,0.0,0.0,0.0128,0.002,1.0008000000000001,0.0,0.0,0.0,0.0,0.0,0.0,0.0,0.0,0.0
1616008204.273369,59,0,0,,-0.8601125531738107,0.11071412433017833,0.3210354588249436,-0.380637639657048,0.0,0.0,0.0,0.0,0.0,0.0,0.0,0.0,0.0,-0.11,0.02,0.17,0.0,0.0,0.0,0.0,0.0,0.0,0.0,0.0,0.0,0.012,0.002,1.0016,0.0,0.0,0.0,0.0,0.0,0.0,0.0,0.0,0.0
1616008204.276017,60,0,0,,-0.8601125531738107,0.11071412433017833,0.3210354588249436,-0.380637639657048,0.0,0.0,0.0,0.0,0.0,0.0,0.0,0.0,0.0,-0.11,0.02,0.17,0.0,0.0,0.0,0.0,0.0,0.0,0.0,0.0,0.0,0.012,0.002,1.0016,0.0,0.0,0.0,0.0,0.0,0.0,0.0,0.0,0.0
1616008204.2839754,61,0,0,,-0.8601125531738107,0.11071412433017833,0.3210354588249436,-0.380637639657048,0.0,0.0,0.0,0.0,0.0,0.0,0.0,0.0,0.0,-0.04,0.04,0.05,0.0,0.0,0.0,0.0,0.0,0.0,0.0,0.0,0.0,0.012400000000000001,0.0016,1.0004,0.0,0.0,0.0,0.0,0.0,0.0,0.0,0.0,0.0
1616008204.286253,62,0,0,,-0.8601125531738107,0.11071412433017833,0.3210354588249436,-0.380637639657048,0.0,0.0,0.0,0.0,0.0,0.0,0.0,0.0,0.0,-0.04,0.04,0.05,0.0,0.0,0.0,0.0,0.0,0.0,0.0,0.0,0.0,0.012400000000000001,0.0016,1.0004,0.0,0.0,0.0,0.0,0.0,0.0,0.0,0.0,0.0
1616008204.2934253,63,0,0,,-0.8601125531738107,0.11071412433017833,0.3210354588249436,-0.380637639657048,0.0,0.0,0.0,0.0,0.0,0.0,0.0,0.0,0.0,-0.15,0.08,0.05,0.0,0.0,0.0,0.0,0.0,0.0,0.0,0.0,0.0,0.0128,0.0012000000000000001,1.0004,0.0,0.0,0.0,0.0,0.0,0.0,0.0,0.0,0.0
1616008204.2955124,64,0,0,,-0.8601125531738107,0.11071412433017833,0.3210354588249436,-0.380637639657048,0.0,0.0,0.0,0.0,0.0,0.0,0.0,0.0,0.0,-0.15,0.08,0.05,0.0,0.0,0.0,0.0,0.0,0.0,0.0,0.0,0.0,0.0128,0.0012000000000000001,1.0004,0.0,0.0,0.0,0.0,0.0,0.0,0.0,0.0,0.0
1616008204.3039556,65,0,0,,-0.8601125531738107,0.11071412433017833,0.3210354588249436,-0.380637639657048,0.0,0.0,0.0,0.0,0.0,0.0,0.0,0.0,0.0,0.0,0.06,0.07,0.0,0.0,0.0,0.0,0.0,0.0,0.0,0.0,0.0,0.012,0.0016,1.0008000000000001,0.0,0.0,0.0,0.0,0.0,0.0,0.0,0.0,0.0
1616008204.307571,66,0,0,,-0.8601125531738107,0.11071412433017833,0.3210354588249436,-0.380637639657048,0.0,0.0,0.0,0.0,0.0,0.0,0.0,0.0,0.0,0.0,0.06,0.07,0.0,0.0,0.0,0.0,0.0,0.0,0.0,0.0,0.0,0.012,0.0016,1.0008000000000001,0.0,0.0,0.0,0.0,0.0,0.0,0.0,0.0,0.0
1616008204.3170824,67,0,0,,-0.8601125531738107,0.11071412433017833,0.3210354588249436,-0.380637639657048,0.0,0.0,0.0,0.0,0.0,0.0,0.0,0.0,0.0,-0.06,0.05,0.05,0.0,0.0,0.0,0.0,0.0,0.0,0.0,0.0,0.0,0.012,0.0012000000000000001,1.0012,0.0,0.0,0.0,0.0,0.0,0.0,0.0,0.0,0.0
1616008204.3171418,68,0,0,,-0.8601125531738107,0.11071412433017833,0.3210354588249436,-0.380637639657048,0.0,0.0,0.0,0.0,0.0,0.0,0.0,0.0,0.0,-0.06,0.05,0.05,0.0,0.0,0.0,0.0,0.0,0.0,0.0,0.0,0.0,0.012,0.0012000000000000001,1.0012,0.0,0.0,0.0,0.0,0.0,0.0,0.0,0.0,0.0
1616008204.3239558,69,0,0,,-0.8601125531738107,0.11071412433017833,0.3210354588249436,-0.380637639657048,0.0,0.0,0.0,0.0,0.0,0.0,0.0,0.0,0.0,-0.05,0.06,0.09,0.0,0.0,0.0,0.0,0.0,0.0,0.0,0.0,0.0,0.012400000000000001,0.0012000000000000001,1.0004,0.0,0.0,0.0,0.0,0.0,0.0,0.0,0.0,0.0
1616008204.3263018,70,0,0,,-0.8601125531738107,0.11071412433017833,0.3210354588249436,-0.380637639657048,0.0,0.0,0.0,0.0,0.0,0.0,0.0,0.0,0.0,-0.05,0.06,0.09,0.0,0.0,0.0,0.0,0.0,0.0,0.0,0.0,0.0,0.012400000000000001,0.0012000000000000001,1.0004,0.0,0.0,0.0,0.0,0.0,0.0,0.0,0.0,0.0
1616008204.3333523,71,0,0,,-0.8601125531738107,0.11071412433017833,0.3210354588249436,-0.380637639657048,0.0,0.0,0.0,0.0,0.0,0.0,0.0,0.0,0.0,-0.02,0.05,0.08,0.0,0.0,0.0,0.0,0.0,0.0,0.0,0.0,0.0,0.0128,0.0012000000000000001,1.0008000000000001,0.0,0.0,0.0,0.0,0.0,0.0,0.0,0.0,0.0
1616008204.344381,72,0,0,,-0.8601125531738107,0.11071412433017833,0.3210354588249436,-0.380637639657048,0.0,0.0,0.0,0.0,0.0,0.0,0.0,0.0,0.0,0.03,0.03,0.06,0.0,0.0,0.0,0.0,0.0,0.0,0.0,0.0,0.0,0.012,0.0016,1.0008000000000001,0.0,0.0,0.0,0.0,0.0,0.0,0.0,0.0,0.0
1616008204.3459008,73,0,0,,-0.8601125531738107,0.11071412433017833,0.3210354588249436,-0.380637639657048,0.0,0.0,0.0,0.0,0.0,0.0,0.0,0.0,0.0,0.03,0.03,0.06,0.0,0.0,0.0,0.0,0.0,0.0,0.0,0.0,0.0,0.012,0.0016,1.0008000000000001,0.0,0.0,0.0,0.0,0.0,0.0,0.0,0.0,0.0
1616008204.3538713,74,0,0,,-0.8601125531738107,0.11071412433017833,0.3210354588249436,-0.380637639657048,0.0,0.0,0.0,0.0,0.0,0.0,0.0,0.0,0.0,-0.11,0.08,0.11,0.0,0.0,0.0,0.0,0.0,0.0,0.0,0.0,0.0,0.0132,0.0016,1.0004,0.0,0.0,0.0,0.0,0.0,0.0,0.0,0.0,0.0
1616008204.3583934,75,0,0,,-0.8601125531738107,0.11071412433017833,0.3210354588249436,-0.380637639657048,0.0,0.0,0.0,0.0,0.0,0.0,0.0,0.0,0.0,-0.11,0.08,0.11,0.0,0.0,0.0,0.0,0.0,0.0,0.0,0.0,0.0,0.0132,0.0016,1.0004,0.0,0.0,0.0,0.0,0.0,0.0,0.0,0.0,0.0
1616008204.3637302,76,0,0,,-0.8601125531738107,0.11071412433017833,0.3210354588249436,-0.380637639657048,0.0,0.0,0.0,0.0,0.0,0.0,0.0,0.0,0.0,0.1,-0.01,0.05,0.0,0.0,0.0,0.0,0.0,0.0,0.0,0.0,0.0,0.012400000000000001,0.0016,1.0016,0.0,0.0,0.0,0.0,0.0,0.0,0.0,0.0,0.0
1616008204.3658123,77,0,0,,-0.8601125531738107,0.11071412433017833,0.3210354588249436,-0.380637639657048,0.0,0.0,0.0,0.0,0.0,0.0,0.0,0.0,0.0,0.1,-0.01,0.05,0.0,0.0,0.0,0.0,0.0,0.0,0.0,0.0,0.0,0.012400000000000001,0.0016,1.0016,0.0,0.0,0.0,0.0,0.0,0.0,0.0,0.0,0.0
1616008204.3763711,78,0,0,,-0.8601125531738107,0.11071412433017833,0.3210354588249436,-0.380637639657048,0.0,0.0,0.0,0.0,0.0,0.0,0.0,0.0,0.0,-0.04,-0.01,0.09,0.0,0.0,0.0,0.0,0.0,0.0,0.0,0.0,0.0,0.012400000000000001,0.0008,1.0,0.0,0.0,0.0,0.0,0.0,0.0,0.0,0.0,0.0
1616008204.3764222,79,0,0,,-0.8601125531738107,0.11071412433017833,0.3210354588249436,-0.380637639657048,0.0,0.0,0.0,0.0,0.0,0.0,0.0,0.0,0.0,-0.04,-0.01,0.09,0.0,0.0,0.0,0.0,0.0,0.0,0.0,0.0,0.0,0.012400000000000001,0.0008,1.0,0.0,0.0,0.0,0.0,0.0,0.0,0.0,0.0,0.0
1616008204.3838737,80,0,0,,-0.8601125531738107,0.11071412433017833,0.3210354588249436,-0.380637639657048,0.0,0.0,0.0,0.0,0.0,0.0,0.0,0.0,0.0,-0.04,-0.06,0.2,0.0,0.0,0.0,0.0,0.0,0.0,0.0,0.0,0.0,0.012400000000000001,0.0012000000000000001,1.0004,0.0,0.0,0.0,0.0,0.0,0.0,0.0,0.0,0.0
1616008204.3860865,81,0,0,,-0.8601125531738107,0.11071412433017833,0.3210354588249436,-0.380637639657048,0.0,0.0,0.0,0.0,0.0,0.0,0.0,0.0,0.0,-0.04,-0.06,0.2,0.0,0.0,0.0,0.0,0.0,0.0,0.0,0.0,0.0,0.012400000000000001,0.0012000000000000001,1.0004,0.0,0.0,0.0,0.0,0.0,0.0,0.0,0.0,0.0
1616008204.3935683,82,0,0,,-0.8601125531738107,0.11071412433017833,0.3210354588249436,-0.380637639657048,0.0,0.0,0.0,0.0,0.0,0.0,0.0,0.0,0.0,-0.06,-0.06,0.11,0.0,0.0,0.0,0.0,0.0,0.0,0.0,0.0,0.0,0.013600000000000001,0.0012000000000000001,1.0,0.0,0.0,0.0,0.0,0.0,0.0,0.0,0.0,0.0
1616008204.396293,83,0,0,,-0.8601125531738107,0.11071412433017833,0.3210354588249436,-0.380637639657048,0.0,0.0,0.0,0.0,0.0,0.0,0.0,0.0,0.0,-0.06,-0.06,0.11,0.0,0.0,0.0,0.0,0.0,0.0,0.0,0.0,0.0,0.013600000000000001,0.0012000000000000001,1.0,0.0,0.0,0.0,0.0,0.0,0.0,0.0,0.0,0.0
1616008204.4051182,84,0,0,,-0.8601125531738107,0.11071412433017833,0.3210354588249436,-0.380637639657048,0.0,0.0,0.0,0.0,0.0,0.0,0.0,0.0,0.0,-0.01,0.05,0.12,0.0,0.0,0.0,0.0,0.0,0.0,0.0,0.0,0.0,0.012400000000000001,0.0016,1.0008000000000001,0.0,0.0,0.0,0.0,0.0,0.0,0.0,0.0,0.0
1616008204.4065664,85,0,0,,-0.8601125531738107,0.11071412433017833,0.3210354588249436,-0.380637639657048,0.0,0.0,0.0,0.0,0.0,0.0,0.0,0.0,0.0,-0.01,0.05,0.12,0.0,0.0,0.0,0.0,0.0,0.0,0.0,0.0,0.0,0.012400000000000001,0.0016,1.0008000000000001,0.0,0.0,0.0,0.0,0.0,0.0,0.0,0.0,0.0
1616008204.4136355,86,0,0,,-0.8601125531738107,0.11071412433017833,0.3210354588249436,-0.380637639657048,0.0,0.0,0.0,0.0,0.0,0.0,0.0,0.0,0.0,0.0,0.01,0.04,0.0,0.0,0.0,0.0,0.0,0.0,0.0,0.0,0.0,0.012,0.0012000000000000001,1.0008000000000001,0.0,0.0,0.0,0.0,0.0,0.0,0.0,0.0,0.0
1616008204.4156957,87,0,0,,-0.8601125531738107,0.11071412433017833,0.3210354588249436,-0.380637639657048,0.0,0.0,0.0,0.0,0.0,0.0,0.0,0.0,0.0,0.0,0.01,0.04,0.0,0.0,0.0,0.0,0.0,0.0,0.0,0.0,0.0,0.012,0.0012000000000000001,1.0008000000000001,0.0,0.0,0.0,0.0,0.0,0.0,0.0,0.0,0.0
1616008204.4233794,88,0,0,,-0.8601125531738107,0.11071412433017833,0.3210354588249436,-0.380637639657048,0.0,0.0,0.0,0.0,0.0,0.0,0.0,0.0,0.0,-0.09,0.04,0.07,0.0,0.0,0.0,0.0,0.0,0.0,0.0,0.0,0.0,0.0128,0.0012000000000000001,1.0008000000000001,0.0,0.0,0.0,0.0,0.0,0.0,0.0,0.0,0.0
1616008204.425249,89,0,0,,-0.8601125531738107,0.11071412433017833,0.3210354588249436,-0.380637639657048,0.0,0.0,0.0,0.0,0.0,0.0,0.0,0.0,0.0,-0.09,0.04,0.07,0.0,0.0,0.0,0.0,0.0,0.0,0.0,0.0,0.0,0.0128,0.0012000000000000001,1.0008000000000001,0.0,0.0,0.0,0.0,0.0,0.0,0.0,0.0,0.0
1616008204.433673,90,0,0,,-0.8601125531738107,0.11071412433017833,0.3210354588249436,-0.380637639657048,0.0,0.0,0.0,0.0,0.0,0.0,0.0,0.0,0.0,-0.1,-0.01,0.07,0.0,0.0,0.0,0.0,0.0,0.0,0.0,0.0,0.0,0.012,0.0016,1.0008000000000001,0.0,0.0,0.0,0.0,0.0,0.0,0.0,0.0,0.0
1616008204.4361458,91,0,0,,-0.8595482334741852,0.11501328525338733,0.31912826562172425,-0.3822380523023591,0.0,0.0,0.0,0.0,0.0,0.0,0.0,0.0,0.0,-0.1,-0.01,0.07,0.0,0.0,0.0,0.0,0.0,0.0,0.0,0.0,0.0,0.012,0.0016,1.0008000000000001,0.0,0.0,0.0,0.0,0.0,0.0,0.0,0.0,0.0
1616008204.448139,92,0,0,,-0.8595482334741852,0.11501328525338733,0.31912826562172425,-0.3822380523023591,0.0,0.0,0.0,0.0,0.0,0.0,0.0,0.0,0.0,0.02,0.0,0.04,0.0,0.0,0.0,0.0,0.0,0.0,0.0,0.0,0.0,0.012400000000000001,0.0012000000000000001,1.0008000000000001,0.0,0.0,0.0,0.0,0.0,0.0,0.0,0.0,0.0
1616008204.4481847,93,0,0,,-0.8601125531738107,0.11071412433017833,0.3210354588249436,-0.380637639657048,0.0,0.0,0.0,0.0,0.0,0.0,0.0,0.0,0.0,0.02,0.0,0.04,0.0,0.0,0.0,0.0,0.0,0.0,0.0,0.0,0.0,0.012400000000000001,0.0012000000000000001,1.0008000000000001,0.0,0.0,0.0,0.0,0.0,0.0,0.0,0.0,0.0
1616008204.4543273,94,0,0,,-0.8601125531738107,0.11071412433017833,0.3210354588249436,-0.380637639657048,0.0,0.0,0.0,0.0,0.0,0.0,0.0,0.0,0.0,-0.07,-0.04,0.21,0.0,0.0,0.0,0.0,0.0,0.0,0.0,0.0,0.0,0.012400000000000001,0.002,1.0012,0.0,0.0,0.0,0.0,0.0,0.0,0.0,0.0,0.0
1616008204.4563947,95,0,0,,-0.8595482334741852,0.11501328525338733,0.31912826562172425,-0.3822380523023591,0.0,0.0,0.0,0.0,0.0,0.0,0.0,0.0,0.0,-0.07,-0.04,0.21,0.0,0.0,0.0,0.0,0.0,0.0,0.0,0.0,0.0,0.012400000000000001,0.002,1.0012,0.0,0.0,0.0,0.0,0.0,0.0,0.0,0.0,0.0
1616008204.4646902,96,0,0,,-0.8595482334741852,0.11501328525338733,0.31912826562172425,-0.3822380523023591,0.0,0.0,0.0,0.0,0.0,0.0,0.0,0.0,0.0,0.06,0.02,0.17,0.0,0.0,0.0,0.0,0.0,0.0,0.0,0.0,0.0,0.0132,0.0012000000000000001,1.0008000000000001,0.0,0.0,0.0,0.0,0.0,0.0,0.0,0.0,0.0
1616008204.4664533,97,0,0,,-0.8601125531738107,0.11071412433017833,0.3210354588249436,-0.380637639657048,0.0,0.0,0.0,0.0,0.0,0.0,0.0,0.0,0.0,0.06,0.02,0.17,0.0,0.0,0.0,0.0,0.0,0.0,0.0,0.0,0.0,0.0132,0.0012000000000000001,1.0008000000000001,0.0,0.0,0.0,0.0,0.0,0.0,0.0,0.0,0.0
1616008204.4733803,98,0,0,,-0.8601125531738107,0.11071412433017833,0.3210354588249436,-0.380637639657048,0.0,0.0,0.0,0.0,0.0,0.0,0.0,0.0,0.0,-0.02,-0.06,0.02,0.0,0.0,0.0,0.0,0.0,0.0,0.0,0.0,0.0,0.012,0.0016,1.0004,0.0,0.0,0.0,0.0,0.0,0.0,0.0,0.0,0.0
1616008204.4757793,99,0,0,,-0.8601125531738107,0.11071412433017833,0.3210354588249436,-0.380637639657048,0.0,0.0,0.0,0.0,0.0,0.0,0.0,0.0,0.0,-0.02,-0.06,0.02,0.0,0.0,0.0,0.0,0.0,0.0,0.0,0.0,0.0,0.012,0.0016,1.0004,0.0,0.0,0.0,0.0,0.0,0.0,0.0,0.0,0.0
1616008204.4835553,100,0,0,,-0.8601125531738107,0.11071412433017833,0.3210354588249436,-0.380637639657048,0.0,0.0,0.0,0.0,0.0,0.0,0.0,0.0,0.0,0.04,0.0,0.1,0.0,0.0,0.0,0.0,0.0,0.0,0.0,0.0,0.0,0.012400000000000001,0.0016,1.0008000000000001,0.0,0.0,0.0,0.0,0.0,0.0,0.0,0.0,0.0
1616008204.490669,101,0,0,,-0.8601125531738107,0.11071412433017833,0.3210354588249436,-0.380637639657048,0.0,0.0,0.0,0.0,0.0,0.0,0.0,0.0,0.0,0.04,0.0,0.1,0.0,0.0,0.0,0.0,0.0,0.0,0.0,0.0,0.0,0.012400000000000001,0.0016,1.0008000000000001,0.0,0.0,0.0,0.0,0.0,0.0,0.0,0.0,0.0
1616008204.4935918,102,0,0,,-0.8601125531738107,0.11071412433017833,0.3210354588249436,-0.380637639657048,0.0,0.0,0.0,0.0,0.0,0.0,0.0,0.0,0.0,-0.12,-0.08,0.06,0.0,0.0,0.0,0.0,0.0,0.0,0.0,0.0,0.0,0.0128,0.0012000000000000001,1.0004,0.0,0.0,0.0,0.0,0.0,0.0,0.0,0.0,0.0
1616008204.4955528,103,0,0,,-0.8586336760927721,0.11272352998949536,0.3252827405595532,-0.37977987671832514,0.0,0.0,0.0,0.0,0.0,0.0,0.0,0.0,0.0,-0.12,-0.08,0.06,0.0,0.0,0.0,0.0,0.0,0.0,0.0,0.0,0.0,0.0128,0.0012000000000000001,1.0004,0.0,0.0,0.0,0.0,0.0,0.0,0.0,0.0,0.0
1616008204.504615,104,0,0,,-0.8586336760927721,0.11272352998949536,0.3252827405595532,-0.37977987671832514,0.0,0.0,0.0,0.0,0.0,0.0,0.0,0.0,0.0,-0.11,-0.04,-0.02,0.0,0.0,0.0,0.0,0.0,0.0,0.0,0.0,0.0,0.012400000000000001,0.002,1.0008000000000001,0.0,0.0,0.0,0.0,0.0,0.0,0.0,0.0,0.0
1616008204.5052392,105,0,0,,-0.8580593278926377,0.11701527144059065,0.3233797830622463,-0.3814015364058388,0.0,0.0,0.0,0.0,0.0,0.0,0.0,0.0,0.0,-0.11,-0.04,-0.02,0.0,0.0,0.0,0.0,0.0,0.0,0.0,0.0,0.0,0.012400000000000001,0.002,1.0008000000000001,0.0,0.0,0.0,0.0,0.0,0.0,0.0,0.0,0.0
1616008204.51431,106,0,0,,-0.8580593278926377,0.11701527144059065,0.3233797830622463,-0.3814015364058388,0.0,0.0,0.0,0.0,0.0,0.0,0.0,0.0,0.0,0.0,0.09,0.09,0.0,0.0,0.0,0.0,0.0,0.0,0.0,0.0,0.0,0.0132,0.0008,1.0008000000000001,0.0,0.0,0.0,0.0,0.0,0.0,0.0,0.0,0.0
1616008204.5164893,107,0,0,,-0.8595482334741852,0.11501328525338733,0.31912826562172425,-0.3822380523023591,0.0,0.0,0.0,0.0,0.0,0.0,0.0,0.0,0.0,0.0,0.09,0.09,0.0,0.0,0.0,0.0,0.0,0.0,0.0,0.0,0.0,0.0132,0.0008,1.0008000000000001,0.0,0.0,0.0,0.0,0.0,0.0,0.0,0.0,0.0
1616008204.5241277,108,0,0,,-0.8595482334741852,0.11501328525338733,0.31912826562172425,-0.3822380523023591,0.0,0.0,0.0,0.0,0.0,0.0,0.0,0.0,0.0,-0.01,0.02,-0.03,0.0,0.0,0.0,0.0,0.0,0.0,0.0,0.0,0.0,0.012,0.0012000000000000001,1.0004,0.0,0.0,0.0,0.0,0.0,0.0,0.0,0.0,0.0
1616008204.5287,109,0,0,,-0.8595482334741852,0.11501328525338733,0.31912826562172425,-0.3822380523023591,0.0,0.0,0.0,0.0,0.0,0.0,0.0,0.0,0.0,-0.01,0.02,-0.03,0.0,0.0,0.0,0.0,0.0,0.0,0.0,0.0,0.0,0.012,0.0012000000000000001,1.0004,0.0,0.0,0.0,0.0,0.0,0.0,0.0,0.0,0.0
1616008204.5367067,110,0,0,,-0.8595482334741852,0.11501328525338733,0.31912826562172425,-0.3822380523023591,0.0,0.0,0.0,0.0,0.0,0.0,0.0,0.0,0.0,-0.04,0.06,0.03,0.0,0.0,0.0,0.0,0.0,0.0,0.0,0.0,0.0,0.012400000000000001,0.0012000000000000001,1.0008000000000001,0.0,0.0,0.0,0.0,0.0,0.0,0.0,0.0,0.0
1616008204.536871,111,0,0,,-0.8595482334741852,0.11501328525338733,0.31912826562172425,-0.3822380523023591,0.0,0.0,0.0,0.0,0.0,0.0,0.0,0.0,0.0,-0.04,0.06,0.03,0.0,0.0,0.0,0.0,0.0,0.0,0.0,0.0,0.0,0.012400000000000001,0.0012000000000000001,1.0008000000000001,0.0,0.0,0.0,0.0,0.0,0.0,0.0,0.0,0.0
1616008204.5448015,112,0,0,,-0.8595482334741852,0.11501328525338733,0.31912826562172425,-0.3822380523023591,0.0,0.0,0.0,0.0,0.0,0.0,0.0,0.0,0.0,-0.1,-0.01,0.04,0.0,0.0,0.0,0.0,0.0,0.0,0.0,0.0,0.0,0.012400000000000001,0.0012000000000000001,1.0008000000000001,0.0,0.0,0.0,0.0,0.0,0.0,0.0,0.0,0.0
1616008204.5456455,113,0,0,,-0.8595482334741852,0.11501328525338733,0.31912826562172425,-0.3822380523023591,0.0,0.0,0.0,0.0,0.0,0.0,0.0,0.0,0.0,-0.1,-0.01,0.04,0.0,0.0,0.0,0.0,0.0,0.0,0.0,0.0,0.0,0.012400000000000001,0.0012000000000000001,1.0008000000000001,0.0,0.0,0.0,0.0,0.0,0.0,0.0,0.0,0.0
1616008204.5537057,114,0,0,,-0.8595482334741852,0.11501328525338733,0.31912826562172425,-0.3822380523023591,0.0,0.0,0.0,0.0,0.0,0.0,0.0,0.0,0.0,-0.07,-0.03,0.1,0.0,0.0,0.0,0.0,0.0,0.0,0.0,0.0,0.0,0.011600000000000001,0.0012000000000000001,1.0008000000000001,0.0,0.0,0.0,0.0,0.0,0.0,0.0,0.0,0.0
1616008204.5567033,115,0,0,,-0.8580593278926377,0.11701527144059065,0.3233797830622463,-0.3814015364058388,0.0,0.0,0.0,0.0,0.0,0.0,0.0,0.0,0.0,-0.07,-0.03,0.1,0.0,0.0,0.0,0.0,0.0,0.0,0.0,0.0,0.0,0.011600000000000001,0.0012000000000000001,1.0008000000000001,0.0,0.0,0.0,0.0,0.0,0.0,0.0,0.0,0.0
1616008204.563667,116,0,0,,-0.8580593278926377,0.11701527144059065,0.3233797830622463,-0.3814015364058388,0.0,0.0,0.0,0.0,0.0,0.0,0.0,0.0,0.0,-0.1,-0.08,0.04,0.0,0.0,0.0,0.0,0.0,0.0,0.0,0.0,0.0,0.0132,0.0024000000000000002,1.0012,0.0,0.0,0.0,0.0,0.0,0.0,0.0,0.0,0.0
1616008204.5660112,117,0,0,,-0.8580593278926377,0.11701527144059065,0.3233797830622463,-0.3814015364058388,0.0,0.0,0.0,0.0,0.0,0.0,0.0,0.0,0.0,-0.1,-0.08,0.04,0.0,0.0,0.0,0.0,0.0,0.0,0.0,0.0,0.0,0.0132,0.0024000000000000002,1.0012,0.0,0.0,0.0,0.0,0.0,0.0,0.0,0.0,0.0
1616008204.5743167,118,0,0,,-0.8580593278926377,0.11701527144059065,0.3233797830622463,-0.3814015364058388,0.0,0.0,0.0,0.0,0.0,0.0,0.0,0.0,0.0,0.0,-0.01,0.06,0.0,0.0,0.0,0.0,0.0,0.0,0.0,0.0,0.0,0.0128,0.0016,1.0012,0.0,0.0,0.0,0.0,0.0,0.0,0.0,0.0,0.0
1616008204.5794964,119,0,0,,-0.8580593278926377,0.11701527144059065,0.3233797830622463,-0.3814015364058388,0.0,0.0,0.0,0.0,0.0,0.0,0.0,0.0,0.0,0.0,-0.01,0.06,0.0,0.0,0.0,0.0,0.0,0.0,0.0,0.0,0.0,0.0128,0.0016,1.0012,0.0,0.0,0.0,0.0,0.0,0.0,0.0,0.0,0.0
1616008204.5836084,120,0,0,,-0.8580593278926377,0.11701527144059065,0.3233797830622463,-0.3814015364058388,0.0,0.0,0.0,0.0,0.0,0.0,0.0,0.0,0.0,-0.02,0.06,0.09,0.0,0.0,0.0,0.0,0.0,0.0,0.0,0.0,0.0,0.012400000000000001,0.0012000000000000001,1.0012,0.0,0.0,0.0,0.0,0.0,0.0,0.0,0.0,0.0
1616008204.5878267,121,0,0,,-0.8580593278926377,0.11701527144059065,0.3233797830622463,-0.3814015364058388,0.0,0.0,0.0,0.0,0.0,0.0,0.0,0.0,0.0,-0.02,0.06,0.09,0.0,0.0,0.0,0.0,0.0,0.0,0.0,0.0,0.0,0.012400000000000001,0.0012000000000000001,1.0012,0.0,0.0,0.0,0.0,0.0,0.0,0.0,0.0,0.0
1616008204.5940485,122,0,0,,-0.8580593278926377,0.11701527144059065,0.3233797830622463,-0.3814015364058388,0.0,0.0,0.0,0.0,0.0,0.0,0.0,0.0,0.0,-0.03,0.05,0.03,0.0,0.0,0.0,0.0,0.0,0.0,0.0,0.0,0.0,0.012400000000000001,0.0016,1.0012,0.0,0.0,0.0,0.0,0.0,0.0,0.0,0.0,0.0
1616008204.5975533,123,0,0,,-0.8580593278926377,0.11701527144059065,0.3233797830622463,-0.3814015364058388,0.0,0.0,0.0,0.0,0.0,0.0,0.0,0.0,0.0,-0.03,0.05,0.03,0.0,0.0,0.0,0.0,0.0,0.0,0.0,0.0,0.0,0.012400000000000001,0.0016,1.0012,0.0,0.0,0.0,0.0,0.0,0.0,0.0,0.0,0.0
1616008204.6043112,124,0,0,,-0.8580593278926377,0.11701527144059065,0.3233797830622463,-0.3814015364058388,0.0,0.0,0.0,0.0,0.0,0.0,0.0,0.0,0.0,-0.06,0.03,0.11,0.0,0.0,0.0,0.0,0.0,0.0,0.0,0.0,0.0,0.012400000000000001,0.0016,1.0008000000000001,0.0,0.0,0.0,0.0,0.0,0.0,0.0,0.0,0.0
1616008204.6061451,125,0,0,,-0.8580593278926377,0.11701527144059065,0.3233797830622463,-0.3814015364058388,0.0,0.0,0.0,0.0,0.0,0.0,0.0,0.0,0.0,-0.06,0.03,0.11,0.0,0.0,0.0,0.0,0.0,0.0,0.0,0.0,0.0,0.012400000000000001,0.0016,1.0008000000000001,0.0,0.0,0.0,0.0,0.0,0.0,0.0,0.0,0.0
1616008204.613829,126,0,0,,-0.8580593278926377,0.11701527144059065,0.3233797830622463,-0.3814015364058388,0.0,0.0,0.0,0.0,0.0,0.0,0.0,0.0,0.0,0.03,0.07,0.05,0.0,0.0,0.0,0.0,0.0,0.0,0.0,0.0,0.0,0.012,0.0016,1.0008000000000001,0.0,0.0,0.0,0.0,0.0,0.0,0.0,0.0,0.0
1616008204.61582,127,0,0,,-0.8580593278926377,0.11701527144059065,0.3233797830622463,-0.3814015364058388,0.0,0.0,0.0,0.0,0.0,0.0,0.0,0.0,0.0,0.03,0.07,0.05,0.0,0.0,0.0,0.0,0.0,0.0,0.0,0.0,0.0,0.012,0.0016,1.0008000000000001,0.0,0.0,0.0,0.0,0.0,0.0,0.0,0.0,0.0
1616008204.6241214,128,0,0,,-0.8580593278926377,0.11701527144059065,0.3233797830622463,-0.3814015364058388,0.0,0.0,0.0,0.0,0.0,0.0,0.0,0.0,0.0,-0.08,-0.03,0.03,0.0,0.0,0.0,0.0,0.0,0.0,0.0,0.0,0.0,0.012400000000000001,0.0008,1.0008000000000001,0.0,0.0,0.0,0.0,0.0,0.0,0.0,0.0,0.0
1616008204.6260293,129,0,0,,-0.8580593278926377,0.11701527144059065,0.3233797830622463,-0.3814015364058388,0.0,0.0,0.0,0.0,0.0,0.0,0.0,0.0,0.0,-0.08,-0.03,0.03,0.0,0.0,0.0,0.0,0.0,0.0,0.0,0.0,0.0,0.012400000000000001,0.0008,1.0008000000000001,0.0,0.0,0.0,0.0,0.0,0.0,0.0,0.0,0.0
1616008204.6336567,130,0,0,,-0.8580593278926377,0.11701527144059065,0.3233797830622463,-0.3814015364058388,0.0,0.0,0.0,0.0,0.0,0.0,0.0,0.0,0.0,-0.06,0.0,0.12,0.0,0.0,0.0,0.0,0.0,0.0,0.0,0.0,0.0,0.012400000000000001,0.0016,1.0008000000000001,0.0,0.0,0.0,0.0,0.0,0.0,0.0,0.0,0.0
1616008204.6353204,131,0,0,,-0.8580593278926377,0.11701527144059065,0.3233797830622463,-0.3814015364058388,0.0,0.0,0.0,0.0,0.0,0.0,0.0,0.0,0.0,-0.06,0.0,0.12,0.0,0.0,0.0,0.0,0.0,0.0,0.0,0.0,0.0,0.012400000000000001,0.0016,1.0008000000000001,0.0,0.0,0.0,0.0,0.0,0.0,0.0,0.0,0.0
1616008204.6438262,132,0,0,,-0.8580593278926377,0.11701527144059065,0.3233797830622463,-0.3814015364058388,0.0,0.0,0.0,0.0,0.0,0.0,0.0,0.0,0.0,0.07,0.05,0.1,0.0,0.0,0.0,0.0,0.0,0.0,0.0,0.0,0.0,0.012,0.0016,1.0,0.0,0.0,0.0,0.0,0.0,0.0,0.0,0.0,0.0
1616008204.6455297,133,0,0,,-0.8580593278926377,0.11701527144059065,0.3233797830622463,-0.3814015364058388,0.0,0.0,0.0,0.0,0.0,0.0,0.0,0.0,0.0,0.07,0.05,0.1,0.0,0.0,0.0,0.0,0.0,0.0,0.0,0.0,0.0,0.012,0.0016,1.0,0.0,0.0,0.0,0.0,0.0,0.0,0.0,0.0,0.0
1616008204.6542695,134,0,0,,-0.8580593278926377,0.11701527144059065,0.3233797830622463,-0.3814015364058388,0.0,0.0,0.0,0.0,0.0,0.0,0.0,0.0,0.0,0.06,-0.03,0.08,0.0,0.0,0.0,0.0,0.0,0.0,0.0,0.0,0.0,0.011600000000000001,0.0016,1.0004,0.0,0.0,0.0,0.0,0.0,0.0,0.0,0.0,0.0
1616008204.6559956,135,0,0,,-0.8580593278926377,0.11701527144059065,0.3233797830622463,-0.3814015364058388,0.0,0.0,0.0,0.0,0.0,0.0,0.0,0.0,0.0,0.06,-0.03,0.08,0.0,0.0,0.0,0.0,0.0,0.0,0.0,0.0,0.0,0.011600000000000001,0.0016,1.0004,0.0,0.0,0.0,0.0,0.0,0.0,0.0,0.0,0.0
1616008204.6644819,136,0,0,,-0.8580593278926377,0.11701527144059065,0.3233797830622463,-0.3814015364058388,0.0,0.0,0.0,0.0,0.0,0.0,0.0,0.0,0.0,0.12,-0.09,0.14,0.0,0.0,0.0,0.0,0.0,0.0,0.0,0.0,0.0,0.012400000000000001,0.002,1.0004,0.0,0.0,0.0,0.0,0.0,0.0,0.0,0.0,0.0
1616008204.666066,137,0,0,,-0.8580593278926377,0.11701527144059065,0.3233797830622463,-0.3814015364058388,0.0,0.0,0.0,0.0,0.0,0.0,0.0,0.0,0.0,0.12,-0.09,0.14,0.0,0.0,0.0,0.0,0.0,0.0,0.0,0.0,0.0,0.012400000000000001,0.002,1.0004,0.0,0.0,0.0,0.0,0.0,0.0,0.0,0.0,0.0
1616008204.6742194,138,0,0,,-0.8580593278926377,0.11701527144059065,0.3233797830622463,-0.3814015364058388,0.0,0.0,0.0,0.0,0.0,0.0,0.0,0.0,0.0,0.01,0.03,0.1,0.0,0.0,0.0,0.0,0.0,0.0,0.0,0.0,0.0,0.0132,0.0016,1.0,0.0,0.0,0.0,0.0,0.0,0.0,0.0,0.0,0.0
1616008204.675347,139,0,0,,-0.8580593278926377,0.11701527144059065,0.3233797830622463,-0.3814015364058388,0.0,0.0,0.0,0.0,0.0,0.0,0.0,0.0,0.0,0.01,0.03,0.1,0.0,0.0,0.0,0.0,0.0,0.0,0.0,0.0,0.0,0.0132,0.0016,1.0,0.0,0.0,0.0,0.0,0.0,0.0,0.0,0.0,0.0
1616008204.6833248,140,0,0,,-0.8580593278926377,0.11701527144059065,0.3233797830622463,-0.3814015364058388,0.0,0.0,0.0,0.0,0.0,0.0,0.0,0.0,0.0,-0.05,-0.03,0.11,0.0,0.0,0.0,0.0,0.0,0.0,0.0,0.0,0.0,0.011600000000000001,0.0012000000000000001,1.0012,0.0,0.0,0.0,0.0,0.0,0.0,0.0,0.0,0.0
1616008204.6864865,141,0,0,,-0.8580593278926377,0.11701527144059065,0.3233797830622463,-0.3814015364058388,0.0,0.0,0.0,0.0,0.0,0.0,0.0,0.0,0.0,-0.05,-0.03,0.11,0.0,0.0,0.0,0.0,0.0,0.0,0.0,0.0,0.0,0.011600000000000001,0.0012000000000000001,1.0012,0.0,0.0,0.0,0.0,0.0,0.0,0.0,0.0,0.0
1616008204.6937513,142,0,0,,-0.8580593278926377,0.11701527144059065,0.3233797830622463,-0.3814015364058388,0.0,0.0,0.0,0.0,0.0,0.0,0.0,0.0,0.0,0.0,-0.02,0.17,0.0,0.0,0.0,0.0,0.0,0.0,0.0,0.0,0.0,0.0128,0.0008,1.0004,0.0,0.0,0.0,0.0,0.0,0.0,0.0,0.0,0.0
1616008204.6959014,143,0,0,,-0.8580593278926377,0.11701527144059065,0.3233797830622463,-0.3814015364058388,0.0,0.0,0.0,0.0,0.0,0.0,0.0,0.0,0.0,0.0,-0.02,0.17,0.0,0.0,0.0,0.0,0.0,0.0,0.0,0.0,0.0,0.0128,0.0008,1.0004,0.0,0.0,0.0,0.0,0.0,0.0,0.0,0.0,0.0
1616008204.7041726,144,0,0,,-0.8580593278926377,0.11701527144059065,0.3233797830622463,-0.3814015364058388,0.0,0.0,0.0,0.0,0.0,0.0,0.0,0.0,0.0,0.09,0.1,0.09,0.0,0.0,0.0,0.0,0.0,0.0,0.0,0.0,0.0,0.0128,0.0016,1.0004,0.0,0.0,0.0,0.0,0.0,0.0,0.0,0.0,0.0
1616008204.7060692,145,0,0,,-0.8586336760927721,0.11272352998949536,0.3252827405595532,-0.37977987671832514,0.0,0.0,0.0,0.0,0.0,0.0,0.0,0.0,0.0,0.09,0.1,0.09,0.0,0.0,0.0,0.0,0.0,0.0,0.0,0.0,0.0,0.0128,0.0016,1.0004,0.0,0.0,0.0,0.0,0.0,0.0,0.0,0.0,0.0
1616008204.7137208,146,0,0,,-0.8586336760927721,0.11272352998949536,0.3252827405595532,-0.37977987671832514,0.0,0.0,0.0,0.0,0.0,0.0,0.0,0.0,0.0,-0.02,0.03,0.1,0.0,0.0,0.0,0.0,0.0,0.0,0.0,0.0,0.0,0.012,0.0012000000000000001,1.0008000000000001,0.0,0.0,0.0,0.0,0.0,0.0,0.0,0.0,0.0
1616008204.7164173,147,0,0,,-0.8586336760927721,0.11272352998949536,0.3252827405595532,-0.37977987671832514,0.0,0.0,0.0,0.0,0.0,0.0,0.0,0.0,0.0,-0.02,0.03,0.1,0.0,0.0,0.0,0.0,0.0,0.0,0.0,0.0,0.0,0.012,0.0012000000000000001,1.0008000000000001,0.0,0.0,0.0,0.0,0.0,0.0,0.0,0.0,0.0
1616008204.7237973,148,0,0,,-0.8586336760927721,0.11272352998949536,0.3252827405595532,-0.37977987671832514,0.0,0.0,0.0,0.0,0.0,0.0,0.0,0.0,0.0,-0.03,0.07,0.08,0.0,0.0,0.0,0.0,0.0,0.0,0.0,0.0,0.0,0.012400000000000001,0.0016,1.0012,0.0,0.0,0.0,0.0,0.0,0.0,0.0,0.0,0.0
1616008204.7255354,149,0,0,,-0.8586336760927721,0.11272352998949536,0.3252827405595532,-0.37977987671832514,0.0,0.0,0.0,0.0,0.0,0.0,0.0,0.0,0.0,-0.03,0.07,0.08,0.0,0.0,0.0,0.0,0.0,0.0,0.0,0.0,0.0,0.012400000000000001,0.0016,1.0012,0.0,0.0,0.0,0.0,0.0,0.0,0.0,0.0,0.0
1616008204.7351246,150,0,0,,-0.8586336760927721,0.11272352998949536,0.3252827405595532,-0.37977987671832514,0.0,0.0,0.0,0.0,0.0,0.0,0.0,0.0,0.0,-0.03,-0.08,0.15,0.0,0.0,0.0,0.0,0.0,0.0,0.0,0.0,0.0,0.0132,0.0016,1.0,0.0,0.0,0.0,0.0,0.0,0.0,0.0,0.0,0.0
1616008204.736378,151,0,0,,-0.8586336760927721,0.11272352998949536,0.3252827405595532,-0.37977987671832514,0.0,0.0,0.0,0.0,0.0,0.0,0.0,0.0,0.0,-0.03,-0.08,0.15,0.0,0.0,0.0,0.0,0.0,0.0,0.0,0.0,0.0,0.0132,0.0016,1.0,0.0,0.0,0.0,0.0,0.0,0.0,0.0,0.0,0.0
1616008204.7437143,152,0,0,,-0.8586336760927721,0.11272352998949536,0.3252827405595532,-0.37977987671832514,0.0,0.0,0.0,0.0,0.0,0.0,0.0,0.0,0.0,-0.07,-0.02,0.14,0.0,0.0,0.0,0.0,0.0,0.0,0.0,0.0,0.0,0.0128,0.0012000000000000001,1.0008000000000001,0.0,0.0,0.0,0.0,0.0,0.0,0.0,0.0,0.0
1616008204.7456267,153,0,0,,-0.8580593278926377,0.11701527144059065,0.3233797830622463,-0.3814015364058388,0.0,0.0,0.0,0.0,0.0,0.0,0.0,0.0,0.0,-0.07,-0.02,0.14,0.0,0.0,0.0,0.0,0.0,0.0,0.0,0.0,0.0,0.0128,0.0012000000000000001,1.0008000000000001,0.0,0.0,0.0,0.0,0.0,0.0,0.0,0.0,0.0
1616008204.753481,154,0,0,,-0.8580593278926377,0.11701527144059065,0.3233797830622463,-0.3814015364058388,0.0,0.0,0.0,0.0,0.0,0.0,0.0,0.0,0.0,-0.02,-0.06,0.04,0.0,0.0,0.0,0.0,0.0,0.0,0.0,0.0,0.0,0.012400000000000001,0.002,1.0008000000000001,0.0,0.0,0.0,0.0,0.0,0.0,0.0,0.0,0.0
1616008204.7555676,155,0,0,,-0.8580593278926377,0.11701527144059065,0.3233797830622463,-0.3814015364058388,0.0,0.0,0.0,0.0,0.0,0.0,0.0,0.0,0.0,-0.02,-0.06,0.04,0.0,0.0,0.0,0.0,0.0,0.0,0.0,0.0,0.0,0.012400000000000001,0.002,1.0008000000000001,0.0,0.0,0.0,0.0,0.0,0.0,0.0,0.0,0.0
1616008204.7637243,156,0,0,,-0.8580593278926377,0.11701527144059065,0.3233797830622463,-0.3814015364058388,0.0,0.0,0.0,0.0,0.0,0.0,0.0,0.0,0.0,-0.03,0.02,0.08,0.0,0.0,0.0,0.0,0.0,0.0,0.0,0.0,0.0,0.012400000000000001,0.0012000000000000001,1.0008000000000001,0.0,0.0,0.0,0.0,0.0,0.0,0.0,0.0,0.0
1616008204.7655864,157,0,0,,-0.8580593278926377,0.11701527144059065,0.3233797830622463,-0.3814015364058388,0.0,0.0,0.0,0.0,0.0,0.0,0.0,0.0,0.0,-0.03,0.02,0.08,0.0,0.0,0.0,0.0,0.0,0.0,0.0,0.0,0.0,0.012400000000000001,0.0012000000000000001,1.0008000000000001,0.0,0.0,0.0,0.0,0.0,0.0,0.0,0.0,0.0
1616008204.7739327,158,0,0,,-0.8580593278926377,0.11701527144059065,0.3233797830622463,-0.3814015364058388,0.0,0.0,0.0,0.0,0.0,0.0,0.0,0.0,0.0,-0.07,0.03,0.13,0.0,0.0,0.0,0.0,0.0,0.0,0.0,0.0,0.0,0.012400000000000001,0.0016,1.0012,0.0,0.0,0.0,0.0,0.0,0.0,0.0,0.0,0.0
1616008204.775945,159,0,0,,-0.8580593278926377,0.11701527144059065,0.3233797830622463,-0.3814015364058388,0.0,0.0,0.0,0.0,0.0,0.0,0.0,0.0,0.0,-0.07,0.03,0.13,0.0,0.0,0.0,0.0,0.0,0.0,0.0,0.0,0.0,0.012400000000000001,0.0016,1.0012,0.0,0.0,0.0,0.0,0.0,0.0,0.0,0.0,0.0
1616008204.7862413,160,0,0,,-0.8580593278926377,0.11701527144059065,0.3233797830622463,-0.3814015364058388,0.0,0.0,0.0,0.0,0.0,0.0,0.0,0.0,0.0,0.06,0.01,0.03,0.0,0.0,0.0,0.0,0.0,0.0,0.0,0.0,0.0,0.012400000000000001,0.0012000000000000001,1.0008000000000001,0.0,0.0,0.0,0.0,0.0,0.0,0.0,0.0,0.0
1616008204.787595,161,0,0,,-0.8580593278926377,0.11701527144059065,0.3233797830622463,-0.3814015364058388,0.0,0.0,0.0,0.0,0.0,0.0,0.0,0.0,0.0,0.06,0.01,0.03,0.0,0.0,0.0,0.0,0.0,0.0,0.0,0.0,0.0,0.012400000000000001,0.0012000000000000001,1.0008000000000001,0.0,0.0,0.0,0.0,0.0,0.0,0.0,0.0,0.0
1616008204.793933,162,0,0,,-0.8580593278926377,0.11701527144059065,0.3233797830622463,-0.3814015364058388,0.0,0.0,0.0,0.0,0.0,0.0,0.0,0.0,0.0,-0.06,-0.04,0.06,0.0,0.0,0.0,0.0,0.0,0.0,0.0,0.0,0.0,0.012,0.0012000000000000001,1.0008000000000001,0.0,0.0,0.0,0.0,0.0,0.0,0.0,0.0,0.0
1616008204.7960753,163,0,0,,-0.8580593278926377,0.11701527144059065,0.3233797830622463,-0.3814015364058388,0.0,0.0,0.0,0.0,0.0,0.0,0.0,0.0,0.0,-0.06,-0.04,0.06,0.0,0.0,0.0,0.0,0.0,0.0,0.0,0.0,0.0,0.012,0.0012000000000000001,1.0008000000000001,0.0,0.0,0.0,0.0,0.0,0.0,0.0,0.0,0.0
1616008204.8035614,164,0,0,,-0.8580593278926377,0.11701527144059065,0.3233797830622463,-0.3814015364058388,0.0,0.0,0.0,0.0,0.0,0.0,0.0,0.0,0.0,-0.07,0.01,0.13,0.0,0.0,0.0,0.0,0.0,0.0,0.0,0.0,0.0,0.012400000000000001,0.0012000000000000001,1.0016,0.0,0.0,0.0,0.0,0.0,0.0,0.0,0.0,0.0
1616008204.8058918,165,0,0,,-0.8580593278926377,0.11701527144059065,0.3233797830622463,-0.3814015364058388,0.0,0.0,0.0,0.0,0.0,0.0,0.0,0.0,0.0,-0.07,0.01,0.13,0.0,0.0,0.0,0.0,0.0,0.0,0.0,0.0,0.0,0.012400000000000001,0.0012000000000000001,1.0016,0.0,0.0,0.0,0.0,0.0,0.0,0.0,0.0,0.0
1616008204.8135056,166,0,0,,-0.8580593278926377,0.11701527144059065,0.3233797830622463,-0.3814015364058388,0.0,0.0,0.0,0.0,0.0,0.0,0.0,0.0,0.0,-0.02,-0.07,0.17,0.0,0.0,0.0,0.0,0.0,0.0,0.0,0.0,0.0,0.011600000000000001,0.002,1.0004,0.0,0.0,0.0,0.0,0.0,0.0,0.0,0.0,0.0
1616008204.816474,167,0,0,,-0.8580593278926377,0.11701527144059065,0.3233797830622463,-0.3814015364058388,0.0,0.0,0.0,0.0,0.0,0.0,0.0,0.0,0.0,-0.02,-0.07,0.17,0.0,0.0,0.0,0.0,0.0,0.0,0.0,0.0,0.0,0.011600000000000001,0.002,1.0004,0.0,0.0,0.0,0.0,0.0,0.0,0.0,0.0,0.0
1616008204.8249652,168,0,0,,-0.8580593278926377,0.11701527144059065,0.3233797830622463,-0.3814015364058388,0.0,0.0,0.0,0.0,0.0,0.0,0.0,0.0,0.0,0.09,0.04,0.08,0.0,0.0,0.0,0.0,0.0,0.0,0.0,0.0,0.0,0.012400000000000001,0.002,1.0,0.0,0.0,0.0,0.0,0.0,0.0,0.0,0.0,0.0
1616008204.826293,169,0,0,,-0.8580593278926377,0.11701527144059065,0.3233797830622463,-0.3814015364058388,0.0,0.0,0.0,0.0,0.0,0.0,0.0,0.0,0.0,0.09,0.04,0.08,0.0,0.0,0.0,0.0,0.0,0.0,0.0,0.0,0.0,0.012400000000000001,0.002,1.0,0.0,0.0,0.0,0.0,0.0,0.0,0.0,0.0,0.0
1616008204.8339338,170,0,0,,-0.8580593278926377,0.11701527144059065,0.3233797830622463,-0.3814015364058388,0.0,0.0,0.0,0.0,0.0,0.0,0.0,0.0,0.0,-0.08,-0.01,0.16,0.0,0.0,0.0,0.0,0.0,0.0,0.0,0.0,0.0,0.0128,0.0016,1.0004,0.0,0.0,0.0,0.0,0.0,0.0,0.0,0.0,0.0
1616008204.8363385,171,0,0,,-0.8580593278926377,0.11701527144059065,0.3233797830622463,-0.3814015364058388,0.0,0.0,0.0,0.0,0.0,0.0,0.0,0.0,0.0,-0.08,-0.01,0.16,0.0,0.0,0.0,0.0,0.0,0.0,0.0,0.0,0.0,0.0128,0.0016,1.0004,0.0,0.0,0.0,0.0,0.0,0.0,0.0,0.0,0.0
1616008204.8438942,172,0,0,,-0.8580593278926377,0.11701527144059065,0.3233797830622463,-0.3814015364058388,0.0,0.0,0.0,0.0,0.0,0.0,0.0,0.0,0.0,0.01,0.06,0.06,0.0,0.0,0.0,0.0,0.0,0.0,0.0,0.0,0.0,0.013600000000000001,0.0012000000000000001,1.0,0.0,0.0,0.0,0.0,0.0,0.0,0.0,0.0,0.0
1616008204.8462384,173,0,0,,-0.8580593278926377,0.11701527144059065,0.3233797830622463,-0.3814015364058388,0.0,0.0,0.0,0.0,0.0,0.0,0.0,0.0,0.0,0.01,0.06,0.06,0.0,0.0,0.0,0.0,0.0,0.0,0.0,0.0,0.0,0.013600000000000001,0.0012000000000000001,1.0,0.0,0.0,0.0,0.0,0.0,0.0,0.0,0.0,0.0
1616008204.8572907,174,0,0,,-0.8580593278926377,0.11701527144059065,0.3233797830622463,-0.3814015364058388,0.0,0.0,0.0,0.0,0.0,0.0,0.0,0.0,0.0,-0.07,-0.03,0.08,0.0,0.0,0.0,0.0,0.0,0.0,0.0,0.0,0.0,0.012400000000000001,0.0008,1.0004,0.0,0.0,0.0,0.0,0.0,0.0,0.0,0.0,0.0
1616008204.8587706,175,0,0,,-0.8580593278926377,0.11701527144059065,0.3233797830622463,-0.3814015364058388,0.0,0.0,0.0,0.0,0.0,0.0,0.0,0.0,0.0,-0.07,-0.03,0.08,0.0,0.0,0.0,0.0,0.0,0.0,0.0,0.0,0.0,0.012400000000000001,0.0008,1.0004,0.0,0.0,0.0,0.0,0.0,0.0,0.0,0.0,0.0
1616008204.8633575,176,0,0,,-0.8580593278926377,0.11701527144059065,0.3233797830622463,-0.3814015364058388,0.0,0.0,0.0,0.0,0.0,0.0,0.0,0.0,0.0,0.09,0.12,0.11,0.0,0.0,0.0,0.0,0.0,0.0,0.0,0.0,0.0,0.0128,0.0012000000000000001,1.0004,0.0,0.0,0.0,0.0,0.0,0.0,0.0,0.0,0.0
1616008204.8660045,177,0,0,,-0.8586336760927721,0.11272352998949536,0.3252827405595532,-0.37977987671832514,0.0,0.0,0.0,0.0,0.0,0.0,0.0,0.0,0.0,0.09,0.12,0.11,0.0,0.0,0.0,0.0,0.0,0.0,0.0,0.0,0.0,0.0128,0.0012000000000000001,1.0004,0.0,0.0,0.0,0.0,0.0,0.0,0.0,0.0,0.0
1616008204.8741453,178,0,0,,-0.8586336760927721,0.11272352998949536,0.3252827405595532,-0.37977987671832514,0.0,0.0,0.0,0.0,0.0,0.0,0.0,0.0,0.0,-0.02,-0.06,0.06,0.0,0.0,0.0,0.0,0.0,0.0,0.0,0.0,0.0,0.0128,0.0012000000000000001,0.9996,0.0,0.0,0.0,0.0,0.0,0.0,0.0,0.0,0.0
1616008204.8760653,179,0,0,,-0.8586336760927721,0.11272352998949536,0.3252827405595532,-0.37977987671832514,0.0,0.0,0.0,0.0,0.0,0.0,0.0,0.0,0.0,-0.02,-0.06,0.06,0.0,0.0,0.0,0.0,0.0,0.0,0.0,0.0,0.0,0.0128,0.0012000000000000001,0.9996,0.0,0.0,0.0,0.0,0.0,0.0,0.0,0.0,0.0
1616008204.8835294,180,0,0,,-0.8586336760927721,0.11272352998949536,0.3252827405595532,-0.37977987671832514,0.0,0.0,0.0,0.0,0.0,0.0,0.0,0.0,0.0,0.0,0.01,0.08,0.0,0.0,0.0,0.0,0.0,0.0,0.0,0.0,0.0,0.012,0.002,1.0012,0.0,0.0,0.0,0.0,0.0,0.0,0.0,0.0,0.0
1616008204.8857236,181,0,0,,-0.8586336760927721,0.11272352998949536,0.3252827405595532,-0.37977987671832514,0.0,0.0,0.0,0.0,0.0,0.0,0.0,0.0,0.0,0.0,0.01,0.08,0.0,0.0,0.0,0.0,0.0,0.0,0.0,0.0,0.0,0.012,0.002,1.0012,0.0,0.0,0.0,0.0,0.0,0.0,0.0,0.0,0.0
1616008204.8935337,182,0,0,,-0.8586336760927721,0.11272352998949536,0.3252827405595532,-0.37977987671832514,0.0,0.0,0.0,0.0,0.0,0.0,0.0,0.0,0.0,-0.04,-0.02,0.04,0.0,0.0,0.0,0.0,0.0,0.0,0.0,0.0,0.0,0.011600000000000001,0.002,1.0016,0.0,0.0,0.0,0.0,0.0,0.0,0.0,0.0,0.0
1616008204.895741,183,0,0,,-0.8586336760927721,0.11272352998949536,0.3252827405595532,-0.37977987671832514,0.0,0.0,0.0,0.0,0.0,0.0,0.0,0.0,0.0,-0.04,-0.02,0.04,0.0,0.0,0.0,0.0,0.0,0.0,0.0,0.0,0.0,0.011600000000000001,0.002,1.0016,0.0,0.0,0.0,0.0,0.0,0.0,0.0,0.0,0.0
1616008204.9046202,184,0,0,,-0.8586336760927721,0.11272352998949536,0.3252827405595532,-0.37977987671832514,0.0,0.0,0.0,0.0,0.0,0.0,0.0,0.0,0.0,-0.02,0.05,0.06,0.0,0.0,0.0,0.0,0.0,0.0,0.0,0.0,0.0,0.011600000000000001,0.0016,1.0,0.0,0.0,0.0,0.0,0.0,0.0,0.0,0.0,0.0
1616008204.9056714,185,0,0,,-0.8586336760927721,0.11272352998949536,0.3252827405595532,-0.37977987671832514,0.0,0.0,0.0,0.0,0.0,0.0,0.0,0.0,0.0,-0.02,0.05,0.06,0.0,0.0,0.0,0.0,0.0,0.0,0.0,0.0,0.0,0.011600000000000001,0.0016,1.0,0.0,0.0,0.0,0.0,0.0,0.0,0.0,0.0,0.0
1616008204.913579,186,0,0,,-0.8586336760927721,0.11272352998949536,0.3252827405595532,-0.37977987671832514,0.0,0.0,0.0,0.0,0.0,0.0,0.0,0.0,0.0,-0.05,0.02,-0.05,0.0,0.0,0.0,0.0,0.0,0.0,0.0,0.0,0.0,0.012400000000000001,0.0016,1.0012,0.0,0.0,0.0,0.0,0.0,0.0,0.0,0.0,0.0
1616008204.9155319,187,0,0,,-0.8580593278926377,0.11701527144059065,0.3233797830622463,-0.3814015364058388,0.0,0.0,0.0,0.0,0.0,0.0,0.0,0.0,0.0,-0.05,0.02,-0.05,0.0,0.0,0.0,0.0,0.0,0.0,0.0,0.0,0.0,0.012400000000000001,0.0016,1.0012,0.0,0.0,0.0,0.0,0.0,0.0,0.0,0.0,0.0
1616008204.9236293,188,0,0,,-0.8580593278926377,0.11701527144059065,0.3233797830622463,-0.3814015364058388,0.0,0.0,0.0,0.0,0.0,0.0,0.0,0.0,0.0,-0.05,-0.06,0.13,0.0,0.0,0.0,0.0,0.0,0.0,0.0,0.0,0.0,0.012,0.0004,1.0008000000000001,0.0,0.0,0.0,0.0,0.0,0.0,0.0,0.0,0.0
1616008204.9252331,189,0,0,,-0.8580593278926377,0.11701527144059065,0.3233797830622463,-0.3814015364058388,0.0,0.0,0.0,0.0,0.0,0.0,0.0,0.0,0.0,-0.05,-0.06,0.13,0.0,0.0,0.0,0.0,0.0,0.0,0.0,0.0,0.0,0.012,0.0004,1.0008000000000001,0.0,0.0,0.0,0.0,0.0,0.0,0.0,0.0,0.0
1616008204.933669,190,0,0,,-0.8580593278926377,0.11701527144059065,0.3233797830622463,-0.3814015364058388,0.0,0.0,0.0,0.0,0.0,0.0,0.0,0.0,0.0,-0.03,0.0,0.07,0.0,0.0,0.0,0.0,0.0,0.0,0.0,0.0,0.0,0.0128,0.0016,0.9996,0.0,0.0,0.0,0.0,0.0,0.0,0.0,0.0,0.0
1616008204.9364824,191,0,0,,-0.8580593278926377,0.11701527144059065,0.3233797830622463,-0.3814015364058388,0.0,0.0,0.0,0.0,0.0,0.0,0.0,0.0,0.0,-0.03,0.0,0.07,0.0,0.0,0.0,0.0,0.0,0.0,0.0,0.0,0.0,0.0128,0.0016,0.9996,0.0,0.0,0.0,0.0,0.0,0.0,0.0,0.0,0.0
1616008204.9439163,192,0,0,,-0.8580593278926377,0.11701527144059065,0.3233797830622463,-0.3814015364058388,0.0,0.0,0.0,0.0,0.0,0.0,0.0,0.0,0.0,0.03,0.03,-0.03,0.0,0.0,0.0,0.0,0.0,0.0,0.0,0.0,0.0,0.013600000000000001,0.0016,1.0004,0.0,0.0,0.0,0.0,0.0,0.0,0.0,0.0,0.0
1616008204.9471097,193,0,0,,-0.8580593278926377,0.11701527144059065,0.3233797830622463,-0.3814015364058388,0.0,0.0,0.0,0.0,0.0,0.0,0.0,0.0,0.0,0.03,0.03,-0.03,0.0,0.0,0.0,0.0,0.0,0.0,0.0,0.0,0.0,0.013600000000000001,0.0016,1.0004,0.0,0.0,0.0,0.0,0.0,0.0,0.0,0.0,0.0
1616008204.9540646,194,0,0,,-0.8580593278926377,0.11701527144059065,0.3233797830622463,-0.3814015364058388,0.0,0.0,0.0,0.0,0.0,0.0,0.0,0.0,0.0,0.02,0.01,0.04,0.0,0.0,0.0,0.0,0.0,0.0,0.0,0.0,0.0,0.0128,0.0008,1.0004,0.0,0.0,0.0,0.0,0.0,0.0,0.0,0.0,0.0
1616008204.9576461,195,0,0,,-0.8586336760927721,0.11272352998949536,0.3252827405595532,-0.37977987671832514,0.0,0.0,0.0,0.0,0.0,0.0,0.0,0.0,0.0,0.02,0.01,0.04,0.0,0.0,0.0,0.0,0.0,0.0,0.0,0.0,0.0,0.0128,0.0008,1.0004,0.0,0.0,0.0,0.0,0.0,0.0,0.0,0.0,0.0
1616008204.9636672,196,0,0,,-0.8586336760927721,0.11272352998949536,0.3252827405595532,-0.37977987671832514,0.0,0.0,0.0,0.0,0.0,0.0,0.0,0.0,0.0,0.1,0.06,0.06,0.0,0.0,0.0,0.0,0.0,0.0,0.0,0.0,0.0,0.0128,0.0012000000000000001,1.0004,0.0,0.0,0.0,0.0,0.0,0.0,0.0,0.0,0.0
1616008204.965765,197,0,0,,-0.8586336760927721,0.11272352998949536,0.3252827405595532,-0.37977987671832514,0.0,0.0,0.0,0.0,0.0,0.0,0.0,0.0,0.0,0.1,0.06,0.06,0.0,0.0,0.0,0.0,0.0,0.0,0.0,0.0,0.0,0.0128,0.0012000000000000001,1.0004,0.0,0.0,0.0,0.0,0.0,0.0,0.0,0.0,0.0
1616008204.973623,198,0,0,,-0.8586336760927721,0.11272352998949536,0.3252827405595532,-0.37977987671832514,0.0,0.0,0.0,0.0,0.0,0.0,0.0,0.0,0.0,0.03,0.02,0.01,0.0,0.0,0.0,0.0,0.0,0.0,0.0,0.0,0.0,0.0132,0.0012000000000000001,1.0012,0.0,0.0,0.0,0.0,0.0,0.0,0.0,0.0,0.0
1616008204.9756186,199,0,0,,-0.8586336760927721,0.11272352998949536,0.3252827405595532,-0.37977987671832514,0.0,0.0,0.0,0.0,0.0,0.0,0.0,0.0,0.0,0.03,0.02,0.01,0.0,0.0,0.0,0.0,0.0,0.0,0.0,0.0,0.0,0.0132,0.0012000000000000001,1.0012,0.0,0.0,0.0,0.0,0.0,0.0,0.0,0.0,0.0
1616008204.9833794,200,0,0,,-0.8586336760927721,0.11272352998949536,0.3252827405595532,-0.37977987671832514,0.0,0.0,0.0,0.0,0.0,0.0,0.0,0.0,0.0,-0.01,0.03,0.18,0.0,0.0,0.0,0.0,0.0,0.0,0.0,0.0,0.0,0.011600000000000001,0.0016,1.0008000000000001,0.0,0.0,0.0,0.0,0.0,0.0,0.0,0.0,0.0
1616008204.9861257,201,0,0,,-0.8586336760927721,0.11272352998949536,0.3252827405595532,-0.37977987671832514,0.0,0.0,0.0,0.0,0.0,0.0,0.0,0.0,0.0,-0.01,0.03,0.18,0.0,0.0,0.0,0.0,0.0,0.0,0.0,0.0,0.0,0.011600000000000001,0.0016,1.0008000000000001,0.0,0.0,0.0,0.0,0.0,0.0,0.0,0.0,0.0
1616008204.9941127,202,0,0,,-0.8586336760927721,0.11272352998949536,0.3252827405595532,-0.37977987671832514,0.0,0.0,0.0,0.0,0.0,0.0,0.0,0.0,0.0,-0.01,0.1,0.09,0.0,0.0,0.0,0.0,0.0,0.0,0.0,0.0,0.0,0.012,0.0016,1.0004,0.0,0.0,0.0,0.0,0.0,0.0,0.0,0.0,0.0
1616008204.9955907,203,0,0,,-0.8586336760927721,0.11272352998949536,0.3252827405595532,-0.37977987671832514,0.0,0.0,0.0,0.0,0.0,0.0,0.0,0.0,0.0,-0.01,0.1,0.09,0.0,0.0,0.0,0.0,0.0,0.0,0.0,0.0,0.0,0.012,0.0016,1.0004,0.0,0.0,0.0,0.0,0.0,0.0,0.0,0.0,0.0
1616008205.003944,204,0,0,,-0.8586336760927721,0.11272352998949536,0.3252827405595532,-0.37977987671832514,0.0,0.0,0.0,0.0,0.0,0.0,0.0,0.0,0.0,0.05,-0.01,0.15,0.0,0.0,0.0,0.0,0.0,0.0,0.0,0.0,0.0,0.0128,0.002,1.0012,0.0,0.0,0.0,0.0,0.0,0.0,0.0,0.0,0.0
1616008205.0058527,205,0,0,,-0.8586336760927721,0.11272352998949536,0.3252827405595532,-0.37977987671832514,0.0,0.0,0.0,0.0,0.0,0.0,0.0,0.0,0.0,0.05,-0.01,0.15,0.0,0.0,0.0,0.0,0.0,0.0,0.0,0.0,0.0,0.0128,0.002,1.0012,0.0,0.0,0.0,0.0,0.0,0.0,0.0,0.0,0.0
1616008205.0140264,206,0,0,,-0.8586336760927721,0.11272352998949536,0.3252827405595532,-0.37977987671832514,0.0,0.0,0.0,0.0,0.0,0.0,0.0,0.0,0.0,-0.06,-0.01,-0.02,0.0,0.0,0.0,0.0,0.0,0.0,0.0,0.0,0.0,0.0128,0.0016,1.0008000000000001,0.0,0.0,0.0,0.0,0.0,0.0,0.0,0.0,0.0
1616008205.0156887,207,0,0,,-0.8586336760927721,0.11272352998949536,0.3252827405595532,-0.37977987671832514,0.0,0.0,0.0,0.0,0.0,0.0,0.0,0.0,0.0,-0.06,-0.01,-0.02,0.0,0.0,0.0,0.0,0.0,0.0,0.0,0.0,0.0,0.0128,0.0016,1.0008000000000001,0.0,0.0,0.0,0.0,0.0,0.0,0.0,0.0,0.0
1616008205.0239408,208,0,0,,-0.8586336760927721,0.11272352998949536,0.3252827405595532,-0.37977987671832514,0.0,0.0,0.0,0.0,0.0,0.0,0.0,0.0,0.0,-0.01,0.02,0.07,0.0,0.0,0.0,0.0,0.0,0.0,0.0,0.0,0.0,0.012,0.0004,1.0004,0.0,0.0,0.0,0.0,0.0,0.0,0.0,0.0,0.0
1616008205.0256455,209,0,0,,-0.8586336760927721,0.11272352998949536,0.3252827405595532,-0.37977987671832514,0.0,0.0,0.0,0.0,0.0,0.0,0.0,0.0,0.0,-0.01,0.02,0.07,0.0,0.0,0.0,0.0,0.0,0.0,0.0,0.0,0.0,0.012,0.0004,1.0004,0.0,0.0,0.0,0.0,0.0,0.0,0.0,0.0,0.0
1616008205.0366926,210,0,0,,-0.8586336760927721,0.11272352998949536,0.3252827405595532,-0.37977987671832514,0.0,0.0,0.0,0.0,0.0,0.0,0.0,0.0,0.0,-0.03,0.08,0.04,0.0,0.0,0.0,0.0,0.0,0.0,0.0,0.0,0.0,0.0128,0.002,1.0004,0.0,0.0,0.0,0.0,0.0,0.0,0.0,0.0,0.0
1616008205.0374134,211,0,0,,-0.8586336760927721,0.11272352998949536,0.3252827405595532,-0.37977987671832514,0.0,0.0,0.0,0.0,0.0,0.0,0.0,0.0,0.0,-0.03,0.08,0.04,0.0,0.0,0.0,0.0,0.0,0.0,0.0,0.0,0.0,0.0128,0.002,1.0004,0.0,0.0,0.0,0.0,0.0,0.0,0.0,0.0,0.0
1616008205.0433354,212,0,0,,-0.8586336760927721,0.11272352998949536,0.3252827405595532,-0.37977987671832514,0.0,0.0,0.0,0.0,0.0,0.0,0.0,0.0,0.0,0.02,-0.02,0.12,0.0,0.0,0.0,0.0,0.0,0.0,0.0,0.0,0.0,0.012,0.0012000000000000001,0.9996,0.0,0.0,0.0,0.0,0.0,0.0,0.0,0.0,0.0
1616008205.0467918,213,0,0,,-0.8586336760927721,0.11272352998949536,0.3252827405595532,-0.37977987671832514,0.0,0.0,0.0,0.0,0.0,0.0,0.0,0.0,0.0,0.02,-0.02,0.12,0.0,0.0,0.0,0.0,0.0,0.0,0.0,0.0,0.0,0.012,0.0012000000000000001,0.9996,0.0,0.0,0.0,0.0,0.0,0.0,0.0,0.0,0.0
1616008205.0540898,214,0,0,,-0.8586336760927721,0.11272352998949536,0.3252827405595532,-0.37977987671832514,0.0,0.0,0.0,0.0,0.0,0.0,0.0,0.0,0.0,-0.01,0.0,0.08,0.0,0.0,0.0,0.0,0.0,0.0,0.0,0.0,0.0,0.0128,0.0012000000000000001,1.0012,0.0,0.0,0.0,0.0,0.0,0.0,0.0,0.0,0.0
1616008205.0560546,215,0,0,,-0.8586336760927721,0.11272352998949536,0.3252827405595532,-0.37977987671832514,0.0,0.0,0.0,0.0,0.0,0.0,0.0,0.0,0.0,-0.01,0.0,0.08,0.0,0.0,0.0,0.0,0.0,0.0,0.0,0.0,0.0,0.0128,0.0012000000000000001,1.0012,0.0,0.0,0.0,0.0,0.0,0.0,0.0,0.0,0.0
1616008205.0640335,216,0,0,,-0.8586336760927721,0.11272352998949536,0.3252827405595532,-0.37977987671832514,0.0,0.0,0.0,0.0,0.0,0.0,0.0,0.0,0.0,0.01,0.01,0.18,0.0,0.0,0.0,0.0,0.0,0.0,0.0,0.0,0.0,0.012400000000000001,0.0012000000000000001,0.9996,0.0,0.0,0.0,0.0,0.0,0.0,0.0,0.0,0.0
1616008205.0670078,217,0,0,,-0.8586336760927721,0.11272352998949536,0.3252827405595532,-0.37977987671832514,0.0,0.0,0.0,0.0,0.0,0.0,0.0,0.0,0.0,0.01,0.01,0.18,0.0,0.0,0.0,0.0,0.0,0.0,0.0,0.0,0.0,0.012400000000000001,0.0012000000000000001,0.9996,0.0,0.0,0.0,0.0,0.0,0.0,0.0,0.0,0.0
1616008205.0743556,218,0,0,,-0.8586336760927721,0.11272352998949536,0.3252827405595532,-0.37977987671832514,0.0,0.0,0.0,0.0,0.0,0.0,0.0,0.0,0.0,-0.08,-0.02,-0.02,0.0,0.0,0.0,0.0,0.0,0.0,0.0,0.0,0.0,0.012400000000000001,0.0012000000000000001,1.0,0.0,0.0,0.0,0.0,0.0,0.0,0.0,0.0,0.0
1616008205.0765145,219,0,0,,-0.8586336760927721,0.11272352998949536,0.3252827405595532,-0.37977987671832514,0.0,0.0,0.0,0.0,0.0,0.0,0.0,0.0,0.0,-0.08,-0.02,-0.02,0.0,0.0,0.0,0.0,0.0,0.0,0.0,0.0,0.0,0.012400000000000001,0.0012000000000000001,1.0,0.0,0.0,0.0,0.0,0.0,0.0,0.0,0.0,0.0
1616008205.0833917,220,0,0,,-0.8586336760927721,0.11272352998949536,0.3252827405595532,-0.37977987671832514,0.0,0.0,0.0,0.0,0.0,0.0,0.0,0.0,0.0,-0.08,-0.02,0.07,0.0,0.0,0.0,0.0,0.0,0.0,0.0,0.0,0.0,0.011600000000000001,0.0012000000000000001,1.0016,0.0,0.0,0.0,0.0,0.0,0.0,0.0,0.0,0.0
